"","name","ibu","abv","calories","beer_style_name","beer_style_norm","num_ratings","overall_rating","brewery_name","brewery_type","city","state","zip_code","post_code","loc_id","lat","long"
"1","De Garde Nelson Hose",NA,4,120,"Grodziskie/Gose/Lichtenhainer","Sour",50,99,"De Garde Brewing","Microbrewery","Tillamook","OR","97141","38,521","11640",45.459109,-123.80389
"2","Funky Buddha Founders Series  1: Veruca Snozzberry Gose",NA,5.2,156,"Grodziskie/Gose/Lichtenhainer","Sour",33,100,"Funky Buddha Brewery","Brew Pub/Brewery","Fort Lauderdale","FL","33334","13,345","27821",26.182161,-80.13341
"3","Stillwater Gose Gone Wild",NA,4.3,129,"Grodziskie/Gose/Lichtenhainer","Sour",272,99,"Stillwater Artisanal","Client Brewer","Baltimore","MD","21224","2,278","7362",39.284607,-76.55696
"4","The Livery Bourbon Barrel Aged Wheat Trippelbock",NA,11.5,345,"Weizen Bock","Wheat Beer",180,100,"The Livery","Brew Pub/Brewery","Benton Harbor","MI","49022","3,100","19227",42.10809,-86.41801
"5","Trillium Pier",NA,6.4,192,"Wheat Ale","Wheat Beer",71,99,"Trillium Brewing Company","Microbrewery","Boston","MA","02210","4,092","17848",42.347974,-71.04463
"6","De Garde Hose",NA,4,120,"Grodziskie/Gose/Lichtenhainer","Sour",91,99,"De Garde Brewing","Microbrewery","Tillamook","OR","97141","38,521","11640",45.459109,-123.80389
"7","The Livery Wheat Trippelbock",NA,11.5,345,"Weizen Bock","Wheat Beer",55,99,"The Livery","Brew Pub/Brewery","Benton Harbor","MI","49022","3,100","19227",42.10809,-86.41801
"8","De Garde Apricot Gose",NA,5.2,156,"Grodziskie/Gose/Lichtenhainer","Sour",50,99,"De Garde Brewing","Microbrewery","Tillamook","OR","97141","38,521","11640",45.459109,-123.80389
"9","De Garde Citra Hose",NA,4,120,"Grodziskie/Gose/Lichtenhainer","Sour",40,99,"De Garde Brewing","Microbrewery","Tillamook","OR","97141","38,521","11640",45.459109,-123.80389
"10","New Glarus Dancing Man Wheat",NA,7.2,216,"Weizen Bock","Wheat Beer",567,99,"New Glarus Brewing Company","Microbrewery","New Glarus","WI","53574","26,685","20574",42.81636,-89.64075
"11","Three Floyds Gumballhead",28,5.5,165,"Wheat Ale","Wheat Beer",1691,98,"Three Floyds Brewing Company","Microbrewery","Munster","IN","46321","26,021","15101",41.551457,-87.50143
"12","TRVE / Prairie Barrel Fermented Gose Aged on Peaches",NA,4.9,147,"Grodziskie/Gose/Lichtenhainer","Sour",12,98,"TRVE Brewing","Brew Pub/Brewery","Denver","CO","80203","10,041","8398",39.731286,-104.98306
"13","Brooklyner-Schneider Hopfen-Weisse",NA,8.5,255,"Weizen Bock","Wheat Beer",547,99,"Brooklyn Brewery","Microbrewery","Brooklyn","NY","11211","4,759","4881",40.645099,-73.945032
"14","The Veil Never Never Forever Forever",NA,5.1,153,"Grodziskie/Gose/Lichtenhainer","Sour",28,99,"The Veil Brewing Company","Microbrewery","Richmond","VA","23230","32,285","23801",37.580346,-77.48831
"15","New Glarus Thumbprint Series Imperial Weizen",NA,9.25,278,"Weizen Bock","Wheat Beer",464,99,"New Glarus Brewing Company","Microbrewery","New Glarus","WI","53574","26,685","20574",42.81636,-89.64075
"16","Stillwater Barrel Aged Series - Cellar Door",NA,6.8,204,"Witbier","Wheat Beer",90,99,"Stillwater Artisanal","Client Brewer","Baltimore","MD","21224","2,278","7362",39.284607,-76.55696
"17","Arizona Wilderness Blood Orange Gose",NA,3.6,108,"Grodziskie/Gose/Lichtenhainer","Sour",13,99,"Arizona Wilderness Brewing Company","Brew Pub","Gilbert","AZ","85233","14,553","26038",33.348593,-111.80833
"18","Paradox Beer Skully Barrel No. 30 (Salty Melons)",NA,8.9,267,"Grodziskie/Gose/Lichtenhainer","Sour",36,99,"Paradox Beer Company","Microbrewery","Divide","CO","80814","10,371","13078",38.927344,-105.18746
"19","De Garde Amarillo Hose",NA,4,120,"Grodziskie/Gose/Lichtenhainer","Sour",25,98,"De Garde Brewing","Microbrewery","Tillamook","OR","97141","38,521","11640",45.459109,-123.80389
"20","OEC Albus",14,4.7,141,"Witbier","Wheat Beer",21,98,"OEC Brewing (Ordinem Ecentrici Coctores)","Microbrewery","Oxford","CT","06478","28,926","9349",41.428163,-73.12729
"21","J. Wakefield / Omnipollo One Trick Pony",10,7,210,"Grodziskie/Gose/Lichtenhainer","Sour",51,98,"J. Wakefield Brewing","Microbrewery","Miami","FL","33127","24,344","12976",25.813808,-80.2058
"22","Live Oak Hefe Weizen",NA,5.2,156,"German Hefeweizen","Wheat Beer",366,98,"Live Oak Brewing Company","Microbrewery","Austin","TX","78702","1,948","26624",30.265158,-97.71879
"23","Hill Farmstead Everett - Bourbon Barrel Aged (2014-)",NA,NA,NA,"Porter","Porter",90,99,"Hill Farmstead Brewery","Microbrewery","Greensboro Bend","VT","05842","15,509","16829",44.574196,-72.24333
"24","Grimm Super Going",NA,4.8,144,"Grodziskie/Gose/Lichtenhainer","Sour",64,98,"Grimm Artisanal Ales","Client Brewer","Brooklyn","NY","",NA,"4881",40.695286,-73.98907
"25","Westbrook Gozu",NA,4,120,"Grodziskie/Gose/Lichtenhainer","Sour",182,98,"Westbrook Brewing","Microbrewery","Mount Pleasant","SC","29464","25,875","6745",32.813518,-79.85899
"26","Grimm Super Spruce",NA,4.7,141,"Grodziskie/Gose/Lichtenhainer","Sour",63,98,"Grimm Artisanal Ales","Client Brewer","Brooklyn","NY","",NA,"4881",40.649059,-73.93304
"27","Tired Hands PermaShore",NA,6.8,204,"Grodziskie/Gose/Lichtenhainer","Sour",22,97,"Tired Hands Brewing Company","Brew Pub/Brewery","Ardmore","PA","19003","1,264","18571",40.000861,-75.29694
"28","Arizona Wilderness / Beavertown Opinyonated Gratzer",NA,4,120,"Grodziskie/Gose/Lichtenhainer","Sour",11,98,"Arizona Wilderness Brewing Company","Brew Pub","Gilbert","AZ","85233","14,553","26038",33.348593,-111.80833
"29","Anchorage Whiteout Wit Bier",20,6.5,195,"Witbier","Wheat Beer",402,97,"Anchorage Brewing Company","Microbrewery","Anchorage","AK","99515","958","29536",61.122943,-149.88852
"30","De Garde Cherry Raz Gose",NA,5.4,162,"Grodziskie/Gose/Lichtenhainer","Sour",11,97,"De Garde Brewing","Microbrewery","Tillamook","OR","97141","38,521","11640",45.459109,-123.80389
"31","The Veil Never Forever",NA,4.9,147,"Grodziskie/Gose/Lichtenhainer","Sour",26,97,"The Veil Brewing Company","Microbrewery","Richmond","VA","23230","32,285","23801",37.580346,-77.48831
"32","Tampa Bay Gourds Gone Wild Pumpkin",NA,5.5,165,"Spice/Herb/Vegetable","Other (Cider, Mead, etc.)",24,98,"Tampa Bay Brewing Co.","Brew Pub","Tampa","FL","33605","38,090","24636",27.963849,-82.43193
"33","Highlands Hollow Thunder Monkey",NA,NA,NA,"Premium Bitter/ESB","Pale Ale",10,88,"Highlands Hollow","Brew Pub","Boise","ID","83702","3,890","18302",43.627734,-116.20756
"34","New Glarus Hopster",NA,5.9,177,"Wheat Ale","Wheat Beer",394,98,"New Glarus Brewing Company","Microbrewery","New Glarus","WI","53574","26,685","20574",42.81636,-89.64075
"35","Dangerous Man Peanut Butter Porter",29,5.3,159,"Porter","Porter",43,99,"Dangerous Man Brewing Company","Microbrewery","Minneapolis","MN","55413","24,922","23182",44.997665,-93.24927
"36","Modern Times Fruitlands - Passion Fruit & Guava",NA,4.9,147,"Grodziskie/Gose/Lichtenhainer","Sour",79,97,"Modern Times Beer","Microbrewery","San Diego","CA","92110","34,355","6960",32.766482,-117.20077
"37","Rapp Gose",10,4,120,"Grodziskie/Gose/Lichtenhainer","Sour",121,97,"Rapp Brewing Company","Microbrewery","Largo","FL","33777","20,692","1444",27.851052,-82.76111
"38","Perennial Suburban Beverage",NA,4.2,126,"Grodziskie/Gose/Lichtenhainer","Sour",123,97,"Perennial Artisan Ales","Microbrewery","Saint Louis","MO","63111","33,751","4037",38.559302,-90.25174
"39","De Garde Azacca Hose",NA,4,120,"Grodziskie/Gose/Lichtenhainer","Sour",19,97,"De Garde Brewing","Microbrewery","Tillamook","OR","97141","38,521","11640",45.459109,-123.80389
"40","Marz Jungle Boogie",44,5.4,162,"Wheat Ale","Wheat Beer",62,97,"Marz Community Brewing Company","Microbrewery","Chicago","IL","60608","6,978","11056",41.850532,-87.6699
"41","Southern Tier Oaked Pumking",NA,8.6,258,"Spice/Herb/Vegetable","Other (Cider, Mead, etc.)",67,99,"Southern Tier Brewing Company (ABV)","Commercial Brewery","Lakewood","NY","14750","20,423","23514",42.098657,-79.32439
"42","Noble Ale Works Naughty Sauce",NA,5.5,165,"Spice/Herb/Vegetable","Other (Cider, Mead, etc.)",44,99,"Noble Ale Works","Microbrewery","Anaheim","CA","92806","935","14147",33.835465,-117.87362
"43","Selins Grove Pumpkin Ale",NA,4.7,141,"Spice/Herb/Vegetable","Other (Cider, Mead, etc.)",38,99,"Selins Grove Brewing Co.","Brew Pub","Selinsgrove","PA","17870","35,338","7755",40.812047,-76.86138
"44","Hardywood Bourbon GBS (Gingerbread Stout)",55,11,330,"Spice/Herb/Vegetable","Other (Cider, Mead, etc.)",138,99,"Hardywood Park Craft Brewery","Microbrewery","Richmond","VA","23220","32,286","23801",37.549396,-77.45739
"45","Allagash Ghoulschip",NA,7,210,"Spice/Herb/Vegetable","Other (Cider, Mead, etc.)",107,98,"Allagash Brewing Company","Microbrewery","Portland","ME","04103","30,945","11808",43.685882,-70.2903
"46","Midnight Sun T.R.E.A.T. Imperial Chocolate Pumpkin Porter",30,7.8,234,"Spice/Herb/Vegetable","Other (Cider, Mead, etc.)",446,99,"Midnight Sun Brewing Company","Microbrewery","Anchorage","AK","99507","973","29536",61.154834,-149.82865
"47","Wicked Weed Barrel Aged Xibalba",NA,9.5,285,"Spice/Herb/Vegetable","Other (Cider, Mead, etc.)",24,99,"Wicked Weed Brewing (AB-InBev)","Brew Pub","Asheville","NC","28801","1,502","13139",35.595661,-82.55632
"48","Avery Rumpkin",15,18.1,543,"Spice/Herb/Vegetable","Other (Cider, Mead, etc.)",453,99,"Avery Brewing Company","Commercial Brewery","Boulder","CO","80301","4,134","18719",40.044385,-105.21928
"49","Blue Tractor Schakolad Weizen",NA,5.5,165,"Spice/Herb/Vegetable","Other (Cider, Mead, etc.)",23,98,"Blue Tractor BBQ & Brewery","Brew Pub","Ann Arbor","MI","48104","1,091","13177",42.266805,-83.72297
"50","Avery Pump[KY]n",NA,16.54,496,"Spice/Herb/Vegetable","Other (Cider, Mead, etc.)",248,98,"Avery Brewing Company","Commercial Brewery","Boulder","CO","80301","4,134","18719",40.044385,-105.21928
"51","Saint Arnold Bishop??s Barrel #9",NA,12.9,387,"Spice/Herb/Vegetable","Other (Cider, Mead, etc.)",24,98,"Saint Arnold Brewing Company","Brew Pub/Brewery","Houston","TX","77020","17,705","8885",29.775927,-95.31836
"52","Elysian Punkuccino Coffee Pumpkin Ale",NA,5,150,"Spice/Herb/Vegetable","Other (Cider, Mead, etc.)",147,98,"Elysian Brewing (AB InBev)","Commercial Brewery","Seattle","WA","",NA,"13678",47.61487,-122.34578
"53","Southern Tier Rum Barrel Aged Pumking",NA,10.7,321,"Spice/Herb/Vegetable","Other (Cider, Mead, etc.)",95,98,"Southern Tier Brewing Company (ABV)","Commercial Brewery","Lakewood","NY","14750","20,423","23514",42.098657,-79.32439
"54","Cigar City Good Gourd Imperial Pumpkin Ale",35,8.5,255,"Spice/Herb/Vegetable","Other (Cider, Mead, etc.)",380,97,"Cigar City Brewing","Microbrewery","Tampa","FL","33607","38,089","24636",27.963798,-82.49537
"55","Saint Arnold Pumpkinator Imperial Pumpkin Stout",NA,10,300,"Spice/Herb/Vegetable","Other (Cider, Mead, etc.)",307,97,"Saint Arnold Brewing Company","Brew Pub/Brewery","Houston","TX","77020","17,705","8885",29.775927,-95.31836
"56","HammerHeart Thor??s Imperial Porter",NA,9.5,285,"Spice/Herb/Vegetable","Other (Cider, Mead, etc.)",21,97,"HammerHeart Brewing Company","Microbrewery","Circle Pines","MN","55014","7,295","30253",45.153516,-93.14463
"57","Pipeworks The One Horned Wonder and His Fanciful Flying Fresno",NA,9,270,"Spice/Herb/Vegetable","Other (Cider, Mead, etc.)",22,98,"Pipeworks Brewing Company","Microbrewery","Chicago","IL","60647","7,014","11056",41.921126,-87.70085
"58","Epic Old Sage Brett",NA,7.6,228,"Spice/Herb/Vegetable","Other (Cider, Mead, etc.)",33,97,"Epic Brewing Company (UT/CO)","Microbrewery","Salt Lake City","UT","84111","34,083","7379",40.7547,-111.88361
"59","Lakefront Imperial Pumpkin (2014-)",NA,9.5,285,"Spice/Herb/Vegetable","Other (Cider, Mead, etc.)",50,97,"Lakefront Brewery","Microbrewery","Milwaukee","WI","53212","24,813","6239",43.11941,-87.94727
"60","Craftsman Triple White Sage",NA,9,270,"Spice/Herb/Vegetable","Other (Cider, Mead, etc.)",60,97,"Craftsman Brewing Co.","Microbrewery","Pasadena","CA","91103","29,365","16845",34.166706,-118.159
"61","Buffalo Bills Black Pumpkin Oatmeal Stout",40,7.9,237,"Spice/Herb/Vegetable","Other (Cider, Mead, etc.)",41,97,"Buffalo Bills Brewery","Microbrewery","Hayward","CA","94541","16,602","6493",37.674431,-122.08883
"62","Cigar City Cucumber Lager",NA,5,150,"Spice/Herb/Vegetable","Other (Cider, Mead, etc.)",16,97,"Cigar City Brewing","Microbrewery","Tampa","FL","33607","38,089","24636",27.963798,-82.49537
"63","Kuhnhenn All Hallows Ale",NA,6.5,195,"Spice/Herb/Vegetable","Other (Cider, Mead, etc.)",45,96,"Kuhnhenn Brewing","Brew Pub","Warren","MI","48092","40,506","23808",42.511293,-83.0597
"64","Odd Side Ales Sweet Potato Souffl?? Rye Whiskey Barrel Aged Ale",NA,11,330,"Spice/Herb/Vegetable","Other (Cider, Mead, etc.)",15,96,"Odd Side Ales","Brew Pub/Brewery","Grand Haven","MI","49417","15,132","13801",43.04117,-86.19013
"65","Maine Beer King Titus",NA,7.5,225,"Porter","Porter",459,99,"Maine Beer Company","Microbrewery","Freeport","ME","04032","13,838","3494",43.843778,-70.10172
"66","Southern Tier Pumking",NA,8.6,258,"Spice/Herb/Vegetable","Other (Cider, Mead, etc.)",1924,97,"Southern Tier Brewing Company (ABV)","Commercial Brewery","Lakewood","NY","14750","20,423","23514",42.098657,-79.32439
"67","Elysian Dark O?? The Moon Pumpkin Stout",NA,7.6,228,"Spice/Herb/Vegetable","Other (Cider, Mead, etc.)",319,97,"Elysian Brewing (AB InBev)","Commercial Brewery","Seattle","WA","",NA,"13678",47.716648,-122.30308
"68","Griffin Claw Bourbon Imperial Pumpkin (BIP)",NA,9,270,"Spice/Herb/Vegetable","Other (Cider, Mead, etc.)",30,97,"Griffin Claw Brewing Company","Brew Pub","Birmingham","MI","48009","3,521","5997",42.544084,-83.21527
"69","Uinta Crooked Line Oak Jacked Imperial Pumpkin",NA,10.31,309,"Spice/Herb/Vegetable","Other (Cider, Mead, etc.)",322,97,"Uinta Brewing Company","Brew Pub/Brewery","Salt Lake City","UT","84104","34,053","7379",40.750628,-111.94077
"70","Cigar City Good Gourd Almighty - Bourbon Barrel",NA,8.5,255,"Spice/Herb/Vegetable","Other (Cider, Mead, etc.)",31,96,"Cigar City Brewing","Microbrewery","Tampa","FL","33607","38,089","24636",27.963798,-82.49537
"71","Saint Arnold Bishop??s Barrel #6",30,13,390,"Spice/Herb/Vegetable","Other (Cider, Mead, etc.)",31,97,"Saint Arnold Brewing Company","Brew Pub/Brewery","Houston","TX","77020","17,705","8885",29.775927,-95.31836
"72","AleWerks Pumpkin Ale",NA,7.3,219,"Spice/Herb/Vegetable","Other (Cider, Mead, etc.)",136,96,"AleWerks Brewing Company","Microbrewery","Williamsburg","VA","23188","42,198","28166",37.322936,-76.75793
"73","Armadillo Ale Works Brunch Money",70,10,300,"Spice/Herb/Vegetable","Other (Cider, Mead, etc.)",30,96,"Armadillo Ale Works","Microbrewery","Denton","TX","76202","9,974","695",33.225523,-97.108546
"74","Jolly Pumpkin La Parcela No. 1 Pumpkin Ale",NA,5.9,177,"Spice/Herb/Vegetable","Other (Cider, Mead, etc.)",564,96,"Jolly Pumpkin Artisan Ales","Microbrewery","Dexter","MI","48130","10,276","25362",42.344837,-83.89907
"75","Elysian The Great Pumpkin Imperial Pumpkin Ale",NA,8.1,243,"Spice/Herb/Vegetable","Other (Cider, Mead, etc.)",281,96,"Elysian Brewing (AB InBev)","Commercial Brewery","Seattle","WA","",NA,"13678",47.432251,-121.803388
"76","Central Waters Headless Heron",NA,8.5,255,"Spice/Herb/Vegetable","Other (Cider, Mead, etc.)",72,95,"Central Waters Brewing Co.","Microbrewery","Amherst","WI","54406","896","12037",44.421111,-89.30618
"77","Schlafly Pumpkin Ale",16,8,240,"Spice/Herb/Vegetable","Other (Cider, Mead, etc.)",525,95,"Saint Louis Brewery","Brew Pub/Brewery","Saint Louis","MO","63103","33,720","4037",38.631451,-90.21415
"78","Greenbush PHD",NA,8.4,252,"Malt Liquor","Other (Cider, Mead, etc.)",15,48,"Greenbush Brewing Company","Microbrewery","Sawyer","MI","49125","34,951","21129",41.890521,-86.59362
"79","Eden Cellar Series #2: The Falstaff",NA,10,300,"Ice Cider/Ice Perry","Other (Cider, Mead, etc.)",18,100,"Eden Ice Cider Company","Cidery","Newport","VT","05855","26,951","17524",44.936237,-72.19921
"80","Eden Northern Spy",NA,10,300,"Ice Cider/Ice Perry","Other (Cider, Mead, etc.)",61,99,"Eden Ice Cider Company","Cidery","Newport","VT","05855","26,951","17524",44.936237,-72.19921
"81","Eden Heirloom Blend Ice Cider",NA,10,300,"Ice Cider/Ice Perry","Other (Cider, Mead, etc.)",85,99,"Eden Ice Cider Company","Cidery","Newport","VT","05855","26,951","17524",44.936237,-72.19921
"82","Windfall Orchard Ice Cider",NA,9,270,"Ice Cider/Ice Perry","Other (Cider, Mead, etc.)",25,99,"Eden Ice Cider Company","Cidery","Newport","VT","05855","26,951","17524",44.936237,-72.19921
"83","Eden Honeycrisp",NA,10,300,"Ice Cider/Ice Perry","Other (Cider, Mead, etc.)",34,99,"Eden Ice Cider Company","Cidery","Newport","VT","05855","26,951","17524",44.936237,-72.19921
"84","Eden Heirloom Blend (Apple Brandy Barrels 2013)",NA,10,300,"Ice Cider/Ice Perry","Other (Cider, Mead, etc.)",16,99,"Eden Ice Cider Company","Cidery","Newport","VT","05855","26,951","17524",44.936237,-72.19921
"85","Hill Farmstead Everett",NA,7.2,216,"Porter","Porter",520,100,"Hill Farmstead Brewery","Microbrewery","Greensboro Bend","VT","05842","15,509","16829",44.574196,-72.24333
"86","Funky Buddha Maple Bacon Coffee Porter",35,6.4,192,"Porter","Porter",352,100,"Funky Buddha Brewery","Brew Pub/Brewery","Fort Lauderdale","FL","33334","13,345","27821",26.182161,-80.13341
"87","Funky Buddha Last Snow Porter",35,6.4,192,"Porter","Porter",322,100,"Funky Buddha Brewery","Brew Pub/Brewery","Fort Lauderdale","FL","33334","13,345","27821",26.182161,-80.13341
"88","Founders Porter",45,6.5,195,"Porter","Porter",2167,100,"Founders Brewing Company","Microbrewery","Grand Rapids","MI","49503","15,169","13540",42.964176,-85.65885
"89","Sante Adairius Vanilla Joe",NA,6.8,204,"Porter","Porter",29,99,"Sante Adairius Rustic Ales","Microbrewery","Capitola","CA","95010","5,825","13512",36.9761,-121.95316
"90","Hill Farmstead Twilight of the Idols",NA,7.5,225,"Porter","Porter",296,99,"Hill Farmstead Brewery","Microbrewery","Greensboro Bend","VT","05842","15,509","16829",44.574196,-72.24333
"91","Great Lakes Edmund Fitzgerald Porter",37,5.8,174,"Porter","Porter",1807,99,"Great Lakes Brewing (Ohio)","Brew Pub/Brewery","Cleveland","OH","44113","7,567","11642",41.484688,-81.70125
"92","Willoughby Peanut Butter Cup Coffee Porter",30,5.5,165,"Porter","Porter",103,99,"Willoughby Brewing Co.","Brew Pub","Willoughby","OH","44094","42,258","15215",41.625886,-81.39929
"93","Three Floyds Precious",NA,6.3,189,"Porter","Porter",50,99,"Three Floyds Brewing Company","Microbrewery","Munster","IN","46321","26,021","15101",41.551457,-87.50143
"94","Dark Horse Reserve Special Black Ale",NA,7.5,225,"Porter","Porter",1219,99,"Dark Horse Brewing Company","Microbrewery","Marshall","MI","49068","23,323","18051",42.277837,-84.94869
"95","Ballast Point Mocha Marlin",NA,6,180,"Porter","Porter",116,99,"Ballast Point Brewing Company (Constellation)","Microbrewery","San Diego","CA","92110","34,355","6960",32.766482,-117.20077
"96","Cellarmaker Coffee and Cigarettes",35,7.2,216,"Porter","Porter",68,99,"Cellarmaker Brewing Company","Microbrewery","San Francisco","CA","94103","34,504","9350",37.772329,-122.41087
"97","Smog City Groundwork Coffee Porter",NA,6,180,"Porter","Porter",102,99,"Smog City Brewing","Microbrewery","Torrance","CA","90501","38,785","13628",33.828766,-118.31367
"98","Anchor Porter",NA,5.6,168,"Porter","Porter",3084,98,"Anchor Brewing Company","Microbrewery","San Francisco","CA","94107","34,488","9350",37.766529,-122.39577
"99","Smuttynose Robust Porter",60,6.2,186,"Porter","Porter",1401,98,"Smuttynose Brewing Company","Microbrewery","Hampton","NH","03842","16,054","22698",42.93569,-70.82514
"100","Cigar City Cookies and Milk",NA,NA,NA,"Porter","Porter",13,98,"Cigar City Brewing","Microbrewery","Tampa","FL","33607","38,089","24636",27.963798,-82.49537
"101","Cigar City Puppy??s Breath Robust Porter",NA,6.5,195,"Porter","Porter",237,98,"Cigar City Brewing","Microbrewery","Tampa","FL","33607","38,089","24636",27.963798,-82.49537
"102","Three Floyds Snow Weasel",30,6.2,186,"Porter","Porter",36,98,"Three Floyds Brewing Company","Microbrewery","Munster","IN","46321","26,021","15101",41.551457,-87.50143
"103","Cigar City Soggy Loaf Pumpernickel Rye Porter",NA,NA,NA,"Porter","Porter",51,98,"Cigar City Brewing","Microbrewery","Tampa","FL","33607","38,089","24636",27.963798,-82.49537
"104","Stone Smoked Porter",53,5.9,177,"Porter","Porter",2452,98,"Stone Brewing","Commercial Brewery","Escondido","CA","92029","12,182","17514",33.087868,-117.11558
"105","Creature Comforts Koko Buni",NA,6.8,204,"Porter","Porter",45,98,"Creature Comforts Brewing Company","Microbrewery","Athens","GA","30601","1,607","10240",33.979016,-83.36423
"106","Rapp Chocolate Hazelnut Porter",37,6.1,183,"Porter","Porter",25,98,"Rapp Brewing Company","Microbrewery","Largo","FL","33777","20,692","1444",27.851052,-82.76111
"107","Cellarmaker Wagoner",70,7.8,234,"Porter","Porter",21,98,"Cellarmaker Brewing Company","Microbrewery","San Francisco","CA","94103","34,504","9350",37.772329,-122.41087
"108","Trillium Sprang",NA,4.9,147,"K??lsch","Pils/Lager",37,99,"Trillium Brewing Company","Microbrewery","Boston","MA","02210","4,092","17848",42.347974,-71.04463
"109","Trillium Big Sprang",NA,7.5,225,"K??lsch","Pils/Lager",26,98,"Trillium Brewing Company","Microbrewery","Boston","MA","02210","4,092","17848",42.347974,-71.04463
"110","Bluejacket Forbidden Planet",20,4.2,126,"K??lsch","Pils/Lager",58,97,"Bluejacket","Brew Pub","Washington","DC","20003","40,793","11545",38.881762,-76.99447
"111","MadTree Gin Barrel Aged Joon",11,4.7,141,"K??lsch","Pils/Lager",13,93,"MadTree Brewing Company","Brew Pub/Brewery","Cincinnati","OH","45213","7,230","9416",39.180893,-84.41881
"112","The Cambridge House Copper Hill Kolsch",NA,5.1,153,"K??lsch","Pils/Lager",47,93,"The Cambridge House","Brew Pub","Granby","CT","06035","15,108","22353",41.959713,-72.79826
"113","Ruhstaller Exquisite Kolsch",15,5,150,"K??lsch","Pils/Lager",18,91,"Ruhstaller","Client Brewer","Sacramento","CA","95814","33,408","22470",38.580255,-121.49125
"114","Goose Island SPF",NA,5.6,168,"K??lsch","Pils/Lager",14,90,"Goose Island Beer Company (Brewpubs) AB-Inbev","Brew Pub/Brewery","Chicago","IL","60614","6,984","11056",41.922682,-87.65432
"115","Other Half / Finback Lime Green Galaxies",NA,4.8,144,"K??lsch","Pils/Lager",13,88,"Other Half Brewing","Microbrewery","Brooklyn","NY","11231","4,777","4881",40.618944,-73.98473
"116","Heater Allen Das Bier Kolsch",22,5,150,"K??lsch","Pils/Lager",17,86,"Heater Allen Brewing Co.","Microbrewery","Mcminnville","OR","97128","23,826","6448",45.210104,-123.20747
"117","Burial Billows",25,4.9,147,"K??lsch","Pils/Lager",22,81,"Burial Beer Company","Microbrewery","Asheville","NC","28801","1,502","13139",35.595661,-82.55632
"118","Victory K??hl K??lsch",NA,4.9,147,"K??lsch","Pils/Lager",30,81,"Victory Brewing Company (ABV)","Microbrewery","Downingtown","PA","19335","10,571","14117",40.02342,-75.71389
"119","Three Floyds / Sun King Slacktivist",NA,7.3,219,"K??lsch","Pils/Lager",26,83,"Three Floyds Brewing Company","Microbrewery","Munster","IN","46321","26,021","15101",41.551457,-87.50143
"120","Breakside Post Time K??lsch",16,5.1,153,"K??lsch","Pils/Lager",25,78,"Breakside Brewery","Microbrewery","Portland","OR","97211","30,990","10960",45.56544,-122.64635
"121","Huss Koffee K??lsch",NA,4.8,144,"K??lsch","Pils/Lager",30,77,"Huss Brewing Company - Tempe Taproom","Brew Pub/Brewery","Tempe","AZ","85283","38,243","23954",33.365951,-111.93155
"122","Wrecking Bar Breaking Bob K??lsch",21,4.8,144,"K??lsch","Pils/Lager",26,76,"Wrecking Bar Brewpub","Brew Pub/Brewery","Atlanta","GA","30307","1,657","28259",33.768205,-84.33786
"123","Maui Brewing Kihei K??lsch",51,5.1,153,"K??lsch","Pils/Lager",52,78,"Maui Brewing Company","Brew Pub/Brewery","Kihei","HI","96753","19,666","28929",20.771418,-156.45769
"124","Smuttynose Smuttlabs Kung Fu Hobo",NA,5,150,"K??lsch","Pils/Lager",21,78,"Smuttynose Brewing Company","Microbrewery","Hampton","NH","03842","16,054","22698",42.93569,-70.82514
"125","Peticolas Golden Opportunity",27,4.6,138,"K??lsch","Pils/Lager",35,76,"Peticolas Brewing Company","Microbrewery","Dallas","TX","75207","9,272","3353",32.78643,-96.81992
"126","Chuckanut Kolsch German Ale",NA,5,150,"K??lsch","Pils/Lager",50,75,"Chuckanut Brewery and Kitchen","Brew Pub","Bellingham","WA","98225","2,945","16309",48.747578,-122.48508
"127","Goose Island Golden Goddess",20,4.6,138,"K??lsch","Pils/Lager",16,75,"Goose Island Beer Company (AB-InBev)","Commercial Brewery","Chicago","IL","60612","6,982","11056",41.880682,-87.6877
"128","Ballast Point Tart Peach Kolsch",NA,5.2,156,"K??lsch","Pils/Lager",30,72,"Ballast Point Brewing Company (Constellation)","Microbrewery","San Diego","CA","92110","34,355","6960",32.766482,-117.20077
"129","High Water Cucumber K??lsch",15,5.4,162,"K??lsch","Pils/Lager",15,72,"High Water Brewing","Microbrewery","Pittsburg","CA","94565","30,369","1854",38.017917,-121.90502
"130","Coachella Valley K??lschella",NA,4.5,135,"K??lsch","Pils/Lager",22,73,"Coachella Valley Brewing","Microbrewery","Thousand Palms","CA","92276","38,471","12579",33.821318,-116.38023
"131","Worthy Easy Day K??lsch",25,4.5,135,"K??lsch","Pils/Lager",44,72,"Worthy Brewing Company","Microbrewery","Bend","OR","97701","3,026","4847",44.091256,-121.29769
"132","Stone Corral K??lsch",NA,4.8,144,"K??lsch","Pils/Lager",10,73,"Stone Corral Brewery","Microbrewery","Richmond","VT","05477","32,335","21641",44.392443,-72.95936
"133","MadTree Lift",11,4.7,141,"K??lsch","Pils/Lager",52,70,"MadTree Brewing Company","Brew Pub/Brewery","Cincinnati","OH","45213","7,230","9416",39.180893,-84.41881
"134","Metropolitan Kr??nkshaft",NA,5,150,"K??lsch","Pils/Lager",124,69,"Metropolitan Brewing","Microbrewery","Chicago","IL","60640","7,008","11056",41.973181,-87.6665
"135","Left Hand Travelin?? Light",22,4.8,144,"K??lsch","Pils/Lager",24,69,"Left Hand Brewing Company","Microbrewery","Longmont","CO","80501","21,979","3718",40.171484,-105.10033
"136","Hops & Grain 787??2",NA,4.9,147,"K??lsch","Pils/Lager",14,71,"Hops & Grain Brewing","Microbrewery","Austin","TX","78702","1,948","26624",30.265158,-97.71879
"137","Drakes Blonde Ale",NA,4.5,135,"K??lsch","Pils/Lager",106,73,"Drakes Brewing Company","Microbrewery","San Leandro","CA","94577","34,631","21104",37.722279,-122.15702
"138","De Garde The Anniversary",NA,5,150,"Lambic Style - Gueuze","Sour",24,100,"De Garde Brewing","Microbrewery","Tillamook","OR","97141","38,521","11640",45.459109,-123.80389
"139","Urban Chestnut Bap Kolsch",12,4.5,135,"K??lsch","Pils/Lager",31,72,"Urban Chestnut Brewing Company","Brew Pub/Brewery","Saint Louis","MO","63103","33,720","4037",38.631451,-90.21415
"140","Boulevard American K??lsch",18,4.6,138,"K??lsch","Pils/Lager",65,66,"Boulevard Brewing Company (Duvel-Moortgat)","Commercial Brewery","Kansas City","MO","64108","19,278","21489",39.084554,-94.58296
"141","Firestone Walker Rye Double DBA",NA,15,450,"Barley Wine","Other (Cider, Mead, etc.)",28,100,"Firestone Walker Brewing (Duvel-Moortgat)","Commercial Brewery","Paso Robles","CA","93446","29,400","8515",35.640589,-120.70418
"142","Gekkeikan (Laurel Crown) Zipang Sparkling Sake",NA,7,210,"Sak?? - Junmai","Sake",11,36,"Gekkeikan Sake (USA)","Sake Producer","Folsom","CA","95630","13,136","17702",38.672127,-121.15783
"143","Ozeki (USA) Pure Junmai Sake",NA,16,480,"Sak?? - Junmai","Sake",15,21,"Ozeki Sake (USA), Inc.","Sake Producer","Hollister","CA","95023","17,257","5011",36.862243,-121.38006
"144","Ozeki (Champion) Dry Sake",NA,14.5,435,"Sak?? - Junmai","Sake",99,18,"Ozeki Sake (USA), Inc.","Sake Producer","Hollister","CA","95023","17,257","5011",36.862243,-121.38006
"145","Sho Chiku Bai (Pine Bamboo Plum) Classic Sake",NA,16,480,"Sak?? - Junmai","Sake",118,16,"Takara Sake USA","Sake Producer","Berkeley","CA","94710","3,135","10487",37.869976,-122.2981
"146","Russian River Pliny the Younger",NA,11,330,"Imperial IPA","IPA",769,100,"Russian River Brewing","Brew Pub/Brewery","Santa Rosa","CA","95404","34,794","22924",38.457611,-122.69317
"147","Russian River Pliny the Elder",100,8,240,"Imperial IPA","IPA",2866,100,"Russian River Brewing","Brew Pub/Brewery","Santa Rosa","CA","95404","34,794","22924",38.457611,-122.69317
"148","Alchemist Heady Topper",120,8,240,"Imperial IPA","IPA",1584,100,"The Alchemist","Microbrewery","Stowe","VT","05672","37,392","26725",44.475387,-72.70225
"149","Three Floyds Dreadnaught Imperial IPA",100,9.5,285,"Imperial IPA","IPA",2157,100,"Three Floyds Brewing Company","Microbrewery","Munster","IN","46321","26,021","15101",41.551457,-87.50143
"150","Toppling Goliath King Sue",NA,8.5,255,"Imperial IPA","IPA",188,100,"Toppling Goliath","Microbrewery","Decorah","IA","52101","9,749","18793",43.345879,-91.77187
"151","Hill Farmstead Aaron",NA,NA,NA,"Barley Wine","Other (Cider, Mead, etc.)",101,100,"Hill Farmstead Brewery","Microbrewery","Greensboro Bend","VT","05842","15,509","16829",44.574196,-72.24333
"152","Hill Farmstead Abner",NA,8,240,"Imperial IPA","IPA",390,100,"Hill Farmstead Brewery","Microbrewery","Greensboro Bend","VT","05842","15,509","16829",44.574196,-72.24333
"153","Hair of the Dog Matt",NA,12.5,375,"American Strong Ale","Strong Ale",484,100,"Hair of the Dog Brewing Company","Brew Pub/Brewery","Portland","OR","97214","30,980","10960",45.51379,-122.6458
"154","Firestone Walker 20 (XX Twentieth Anniversary Ale)",NA,13,390,"American Strong Ale","Strong Ale",68,100,"Firestone Walker Brewing (Duvel-Moortgat)","Commercial Brewery","Paso Robles","CA","93446","29,400","8515",35.640589,-120.70418
"155","Maine Beer Dinner",NA,8.2,246,"Imperial IPA","IPA",152,100,"Maine Beer Company","Microbrewery","Freeport","ME","04032","13,838","3494",43.843778,-70.10172
"156","Hill Farmstead Ephraim",280,10.3,309,"Imperial IPA","IPA",194,100,"Hill Farmstead Brewery","Microbrewery","Greensboro Bend","VT","05842","15,509","16829",44.574196,-72.24333
"157","Alpine Beer Company Keene Idea",NA,8.88,266,"Imperial IPA","IPA",54,100,"Alpine Beer Company (CA)","Microbrewery","Alpine","CA","91901","688","2202",32.823102,-116.73864
"158","Hill Farmstead Society & Solitude #5",NA,7.8,234,"Imperial IPA","IPA",253,100,"Hill Farmstead Brewery","Microbrewery","Greensboro Bend","VT","05842","15,509","16829",44.574196,-72.24333
"159","Lost Abbey The Angels Share - Bourbon Barrel",NA,12.5,375,"Barley Wine","Other (Cider, Mead, etc.)",992,100,"Port Brewing Company / The Lost Abbey","Microbrewery","San Marcos","CA","92069","34,651","17796",33.144908,-117.17128
"160","Fremont Abominable - Bourbon Barrel Coffee Cinnamon",NA,14,420,"American Strong Ale","Strong Ale",146,100,"Fremont Brewing Company","Microbrewery","Seattle","WA","98103","35,212","13678",47.64767,-122.39758
"161","Three Floyds Zombie Dust",50,6.2,186,"American Pale Ale","Pale Ale",1375,100,"Three Floyds Brewing Company","Microbrewery","Munster","IN","46321","26,021","15101",41.551457,-87.50143
"162","Flossmoor Station Wooden Hell",NA,9.5,285,"Barley Wine","Other (Cider, Mead, etc.)",190,100,"Flossmoor Station Restaurant & Brewery","Brew Pub","Flossmoor","IL","60422","13,093","22816",41.539384,-87.68424
"163","AleSmith Old Numbskull - Bourbon Barrel Aged",NA,11,330,"Barley Wine","Other (Cider, Mead, etc.)",669,100,"AleSmith Brewing Company","Microbrewery","San Diego","CA","92126","34,375","6960",32.914346,-117.14116
"164","Side Project Anabasis",NA,14,420,"Barley Wine","Other (Cider, Mead, etc.)",15,100,"Side Project Brewing","Microbrewery","Saint Louis","MO","63143","33,745","4037",38.612452,-90.31822
"165","Tree House Very Hazy",NA,8.6,258,"Imperial IPA","IPA",29,100,"Tree House Brewing Company","Microbrewery","Monson","MA","01057","25,265","15190",42.089269,-72.317
"166","AleSmith Wee Heavy Scotch Ale - Bourbon Barrel",NA,10,300,"Scotch Ale","Strong Ale",527,100,"AleSmith Brewing Company","Microbrewery","San Diego","CA","92126","34,375","6960",32.914346,-117.14116
"167","Hill Farmstead Double Galaxy",NA,8,240,"Imperial IPA","IPA",209,100,"Hill Farmstead Brewery","Microbrewery","Greensboro Bend","VT","05842","15,509","16829",44.574196,-72.24333
"168","Lost Abbey Box Set: Track #6 (Highway to Hell)",NA,14.3,429,"American Strong Ale","Strong Ale",82,100,"Port Brewing Company / The Lost Abbey","Microbrewery","San Marcos","CA","92069","34,651","17796",33.144908,-117.17128
"169","Tree House Julius",NA,6.8,204,"India Pale Ale (IPA)","IPA",285,100,"Tree House Brewing Company","Microbrewery","Monson","MA","01057","25,265","15190",42.089269,-72.317
"170","Tree House Juice Machine (2015- )",NA,8.2,246,"Imperial IPA","IPA",35,100,"Tree House Brewing Company","Microbrewery","Monson","MA","01057","25,265","15190",42.089269,-72.317
"171","Hill Farmstead Double Nelson",NA,8,240,"Imperial IPA","IPA",38,100,"Hill Farmstead Brewery","Microbrewery","Greensboro Bend","VT","05842","15,509","16829",44.574196,-72.24333
"172","Trillium Melcher Street IPA - Double Dry Hopped",NA,7.2,216,"India Pale Ale (IPA)","IPA",107,100,"Trillium Brewing Company","Microbrewery","Boston","MA","02210","4,092","17848",42.347974,-71.04463
"173","Hill Farmstead Double Citra",NA,8,240,"Imperial IPA","IPA",269,100,"Hill Farmstead Brewery","Microbrewery","Greensboro Bend","VT","05842","15,509","16829",44.574196,-72.24333
"174","Kuhnhenn Fourth Dementia (4D) Old Ale - Bourbon Barrel",NA,13.5,405,"Old Ale","Brown/Amber Ale",501,100,"Kuhnhenn Brewing","Brew Pub","Warren","MI","48092","40,506","23808",42.511293,-83.0597
"175","Goose Island Bourbon County Barleywine",60,12.1,363,"Barley Wine","Other (Cider, Mead, etc.)",691,100,"Goose Island Beer Company (AB-InBev)","Commercial Brewery","Chicago","IL","60612","6,982","11056",41.880682,-87.6877
"176","Trillium Vicinity",NA,8,240,"Imperial IPA","IPA",173,100,"Trillium Brewing Company","Microbrewery","Boston","MA","02210","4,092","17848",42.347974,-71.04463
"177","Hill Farmstead Society & Solitude #6",NA,8,240,"Imperial IPA","IPA",106,100,"Hill Farmstead Brewery","Microbrewery","Greensboro Bend","VT","05842","15,509","16829",44.574196,-72.24333
"178","Port Brewing Older Viscosity",NA,12,360,"American Strong Ale","Strong Ale",1158,100,"Port Brewing Company / The Lost Abbey","Microbrewery","San Marcos","CA","92069","34,651","17796",33.144908,-117.17128
"179","Lost Abbey Deliverance",NA,12.5,375,"American Strong Ale","Strong Ale",758,100,"Port Brewing Company / The Lost Abbey","Microbrewery","San Marcos","CA","92069","34,651","17796",33.144908,-117.17128
"180","Firestone Walker Sucaba",42,13,390,"Barley Wine","Other (Cider, Mead, etc.)",895,100,"Firestone Walker Brewing (Duvel-Moortgat)","Commercial Brewery","Paso Robles","CA","93446","29,400","8515",35.640589,-120.70418
"181","Trillium Congress Street IPA - Double Dry Hopped",NA,7.2,216,"India Pale Ale (IPA)","IPA",102,100,"Trillium Brewing Company","Microbrewery","Boston","MA","02210","4,092","17848",42.347974,-71.04463
"182","Tree House Alter Ego",NA,6.8,204,"India Pale Ale (IPA)","IPA",155,100,"Tree House Brewing Company","Microbrewery","Monson","MA","01057","25,265","15190",42.089269,-72.317
"183","Lost Abbey The Angels Share Grand Cru",NA,12,360,"Barley Wine","Other (Cider, Mead, etc.)",245,100,"Port Brewing Company / The Lost Abbey","Microbrewery","San Marcos","CA","92069","34,651","17796",33.144908,-117.17128
"184","Alpine Beer Company Exponential Hoppiness",NA,11,330,"Imperial IPA","IPA",442,100,"Alpine Beer Company (CA)","Microbrewery","Alpine","CA","91901","688","2202",32.823102,-116.73864
"185","AleSmith Reforged XX",NA,11,330,"American Strong Ale","Strong Ale",129,100,"AleSmith Brewing Company","Microbrewery","San Diego","CA","92126","34,375","6960",32.914346,-117.14116
"186","Hill Farmstead Susan",NA,6.2,186,"India Pale Ale (IPA)","IPA",331,100,"Hill Farmstead Brewery","Microbrewery","Greensboro Bend","VT","05842","15,509","16829",44.574196,-72.24333
"187","Bissell Brothers Swish",NA,8,240,"Imperial IPA","IPA",84,100,"Bissell Brothers Brewing Company","Microbrewery","Portland","ME","04101","30,951","11808",43.660525,-70.25862
"188","De Garde The Broken Truck",NA,5,150,"Lambic Style - Gueuze","Sour",21,100,"De Garde Brewing","Microbrewery","Tillamook","OR","97141","38,521","11640",45.459109,-123.80389
"189","Bullfrog Le Roar Grrrz",NA,6,180,"Lambic Style - Gueuze","Sour",83,99,"Bullfrog Brewery","Brew Pub","Williamsport","PA","17701","42,213","25161",41.256736,-77.0108
"190","New Glarus R & D Vintage 2015",NA,5,150,"Lambic Style - Gueuze","Sour",26,99,"New Glarus Brewing Company","Microbrewery","New Glarus","WI","53574","26,685","20574",42.81636,-89.64075
"191","Jester King 2016 SPON Methode Gueuze",NA,6,180,"Lambic Style - Gueuze","Sour",50,99,"Jester King Brewery","Brew Pub/Brewery","Austin","TX","78736","1,980","26624",30.245558,-97.94177
"192","New Glarus R & D Vintage 2014",8,6,180,"Lambic Style - Gueuze","Sour",70,99,"New Glarus Brewing Company","Microbrewery","New Glarus","WI","53574","26,685","20574",42.81636,-89.64075
"193","De Garde The Broken Truck 2",NA,5,150,"Lambic Style - Gueuze","Sour",58,99,"De Garde Brewing","Microbrewery","Tillamook","OR","97141","38,521","11640",45.459109,-123.80389
"194","Allagash Coolship Resurgam",NA,6,180,"Lambic Style - Gueuze","Sour",209,99,"Allagash Brewing Company","Microbrewery","Portland","ME","04103","30,945","11808",43.685882,-70.2903
"195","Bruery Terreux Rueuze (2015+)",NA,6,180,"Lambic Style - Gueuze","Sour",83,98,"Bruery Terreux","Client Brewer","Anaheim","CA","92806","935","14147",33.835465,-117.87362
"196","Funk Factory Geuzeria / O??so White Lodge Reserve Geuze",NA,6.5,195,"Lambic Style - Gueuze","Sour",27,98,"Funk Factory Geuzeria","Client Brewer","Madison","WI","53715","22,747","542",43.061546,-89.40024
"197","Devils Backbone / Sun King Another State of Kind",68,6.8,204,"Cream Ale","Pils/Lager",27,73,"Devils Backbone Brewing Company (AB InBev)","Brew Pub/Brewery","Roseland","VA","22967","33,078","18312",37.79151,-78.98961
"198","Jester King 2016 SPON Flor",NA,5.1,153,"Lambic Style - Gueuze","Sour",25,98,"Jester King Brewery","Brew Pub/Brewery","Austin","TX","78736","1,980","26624",30.245558,-97.94177
"199","Upland Sour Reserve Ale",NA,5.5,165,"Lambic Style - Gueuze","Sour",119,98,"Upland Brewing Company","Brew Pub/Brewery","Bloomington","IN","47404","3,732","3479",39.188246,-86.56779
"200","Momokawa G Joy Junmai Ginjo Genshu Sake",NA,18,540,"Sak?? - Genshu","Sake",52,88,"SakeOne Corporation","Sake Producer","Forest Grove","OR","97116","13,200","23926",45.541009,-123.13043
"201","moto-i Junmai Nama Genshu Sake",NA,18.4,552,"Sak?? - Genshu","Sake",12,63,"moto-i","Sake Producer","Minneapolis","MN","55408","24,906","23182",44.947515,-93.28742
"202","Mike Hess Coffee Grazias",NA,5.5,165,"Cream Ale","Pils/Lager",22,73,"Mike Hess Brewing Company","Microbrewery","San Diego","CA","92126","34,375","6960",32.914346,-117.14116
"203","Roundabout Corn on the Bine",NA,4.5,135,"Cream Ale","Pils/Lager",11,91,"Roundabout Brewery","Microbrewery","Pittsburgh","PA","15201","30,385","18744",40.471468,-79.95726
"204","Blackberry Farm Native Series - Tennessee Cream Ale",34,6.3,189,"Cream Ale","Pils/Lager",22,88,"Blackberry Farm","Microbrewery","Walland","TN","37886","40,330","15523",35.734481,-83.81988
"205","Ballast Point Calm Before The Storm",15,5.5,165,"Cream Ale","Pils/Lager",350,86,"Ballast Point Brewing Company (Constellation)","Microbrewery","San Diego","CA","92110","34,355","6960",32.766482,-117.20077
"206","Carton / Barrier SS-C.R.E.A.M",70,8.4,252,"Cream Ale","Pils/Lager",28,85,"Carton Brewing","Microbrewery","Atlantic Highlands","NJ","07716","1,778","19187",40.407958,-74.03483
"207","Sixpoint C.R.E.A.M.",25,7.2,216,"Cream Ale","Pils/Lager",125,65,"Sixpoint Brewery","Microbrewery","Brooklyn","NY","11231","4,777","4881",40.694214,-73.96529
"208","Jailbreak The White Russian",NA,5,150,"Cream Ale","Pils/Lager",17,65,"Jailbreak Brewing Company","Microbrewery","Laurel","MD","20723","20,837","12414",39.134062,-76.8579
"209","Fieldwork Churro",NA,5.5,165,"Cream Ale","Pils/Lager",10,76,"Fieldwork Brewing Company","Microbrewery","Berkeley","CA","94710","3,135","10487",37.869976,-122.2981
"210","Hinterland Pub Draught",NA,5.3,159,"Cream Ale","Pils/Lager",32,76,"Hinterland Brewery","Brew Pub/Brewery","Green Bay","WI","54304","15,394","19302",44.499346,-88.06318
"211","Slumbrew My Better Half",25,7.2,216,"Cream Ale","Pils/Lager",25,83,"Somerville Brewing Company (Slumbrew)","Microbrewery","Somerville","MA","02143","36,294","7442",42.381929,-71.09908
"212","AleSmith Cream Ale",NA,5,150,"Cream Ale","Pils/Lager",41,82,"AleSmith Brewing Company","Microbrewery","San Diego","CA","92126","34,375","6960",32.914346,-117.14116
"213","Burnside The Fifth Ellament",45,5.5,165,"Cream Ale","Pils/Lager",28,81,"Burnside Brewing Company (OR)","Brew Pub/Brewery","Portland","OR","97214","30,980","10960",45.51379,-122.6458
"214","Due South Imperial Caramel Cream Ale",NA,8.4,252,"Cream Ale","Pils/Lager",15,81,"Due South Brewing Co.","Microbrewery","Boynton Beach","FL","33426","4,247","23617",26.529581,-80.08226
"215","Carton Wiscovation",40,6,180,"Cream Ale","Pils/Lager",12,81,"Carton Brewing","Microbrewery","Atlantic Highlands","NJ","07716","1,778","19187",40.407958,-74.03483
"216","Blackrocks Grand Rabbits",NA,5.5,165,"Cream Ale","Pils/Lager",30,78,"Blackrocks Brewery","Microbrewery","Marquette","MI","49855","23,308","10220",46.554402,-87.42223
"217","Pipeworks Dark Matter Machine",NA,6.2,186,"Cream Ale","Pils/Lager",10,75,"Pipeworks Brewing Company","Microbrewery","Chicago","IL","60647","7,014","11056",41.921126,-87.70085
"218","Due South Caramel Cream Ale",NA,5,150,"Cream Ale","Pils/Lager",100,71,"Due South Brewing Co.","Microbrewery","Boynton Beach","FL","33426","4,247","23617",26.529581,-80.08226
"219","Sixpoint Sweet Action",34,5.2,156,"Cream Ale","Pils/Lager",829,69,"Sixpoint Brewery","Microbrewery","Brooklyn","NY","11231","4,777","4881",40.702348,-73.94288
"220","Clown Shoes Moses and the Misfits",NA,9.1,273,"Cream Ale","Pils/Lager",60,68,"Clown Shoes Beer","Client Brewer","Ipswich","MA","01938","18,424","6025",42.682965,-70.84007
"221","Due South Maple Orange Imperial Caramel Cream Ale",NA,8.2,246,"Cream Ale","Pils/Lager",16,70,"Due South Brewing Co.","Microbrewery","Boynton Beach","FL","33426","4,247","23617",26.529581,-80.08226
"222","Mother Earth Cali Creamin",NA,5.2,156,"Cream Ale","Pils/Lager",170,65,"Mother Earth Brew Company","Microbrewery","Vista","CA","92081",NA,"10674",33.179587,-117.24461
"223","Mikkeller San Diego Beer Geek Breakfast (Dark Horse Coffee)",NA,7.5,225,"Stout","Stout",38,98,"Mikkeller San Diego","Microbrewery","San Diego","CA","92126","34,375","6960",32.914346,-117.14116
"224","Victory Blackboard Series #5 Cream Ale with Cold Brewed Coffee",NA,5.2,156,"Cream Ale","Pils/Lager",78,61,"Victory Brewing Company (ABV)","Microbrewery","Downingtown","PA","19335","10,571","14117",40.02342,-75.71389
"225","Right Brain Cakewalk Vanilla Cream Ale",10,4.5,135,"Cream Ale","Pils/Lager",15,62,"Right Brain Brewery","Brew Pub/Brewery","Traverse City","MI","49684","38,873","24114",44.74136,-85.67316
"226","Cigar City Xenu Honey Cream Ale",NA,5,150,"Cream Ale","Pils/Lager",33,60,"Cigar City Brewing","Microbrewery","Tampa","FL","33607","38,089","24636",27.963798,-82.49537
"227","Carlyle Vanilla Cream Ale",NA,4.5,135,"Cream Ale","Pils/Lager",35,58,"Carlyle Brewing Company","Brew Pub","Rockford","IL","61104","32,795","334",42.25537,-89.07602
"228","Odd Side Ales Bourbon Barrel Aged Mayan Mocha",NA,6,180,"Stout","Stout",84,99,"Odd Side Ales","Brew Pub/Brewery","Grand Haven","MI","49417","15,132","13801",43.04117,-86.19013
"229","Rapp Chocolate Peanut Butter Stout",NA,6.8,204,"Stout","Stout",74,99,"Rapp Brewing Company","Microbrewery","Largo","FL","33777","20,692","1444",27.851052,-82.76111
"230","Arizona Wilderness Superstition Coffee Stout",NA,6.6,198,"Stout","Stout",88,99,"Arizona Wilderness Brewing Company","Brew Pub","Gilbert","AZ","85233","14,553","26038",33.348593,-111.80833
"231","Rogue Shakespeare Oatmeal Stout",60,6.5,195,"Stout","Stout",2467,99,"Rogue Ales","Microbrewery","Newport","OR","97365","26,944","13985",44.649252,-124.05039
"232","Three Floyds Hell??s Black Intelligenser (HBI)",29,6,180,"Stout","Stout",83,99,"Three Floyds Brewing Company","Microbrewery","Munster","IN","46321","26,021","15101",41.551457,-87.50143
"233","Modern Times City of the Dead",30,7.5,225,"Stout","Stout",291,99,"Modern Times Beer","Microbrewery","San Diego","CA","92110","34,355","6960",32.766482,-117.20077
"234","Pisgah Valdez",NA,6.8,204,"Stout","Stout",204,99,"Pisgah Brewing Company","Microbrewery","Black Mountain","NC","28711","3,578","18492",35.605146,-82.31665
"235","Pike XXXXX Stout",65,7,210,"Stout","Stout",614,98,"Pike Brewing Company","Brew Pub/Brewery","Seattle","WA","98101","35,237","13678",47.432251,-121.803388
"236","Maine Beer Mean Old Tom",NA,6.5,195,"Stout","Stout",597,98,"Maine Beer Company","Microbrewery","Freeport","ME","04032","13,838","3494",43.843778,-70.10172
"237","Burial Skillet Donut Stout",60,7.5,225,"Stout","Stout",86,98,"Burial Beer Company","Microbrewery","Asheville","NC","28801","1,502","13139",35.595661,-82.55632
"238","Trillium Secret Stairs",NA,6.5,195,"Stout","Stout",75,98,"Trillium Brewing Company","Microbrewery","Boston","MA","02210","4,092","17848",42.347974,-71.04463
"239","Deschutes Obsidian Stout",55,6.4,192,"Stout","Stout",1384,98,"Deschutes Brewery","Microbrewery","Bend","OR","97702","3,030","4847",44.020483,-121.30891
"240","Sierra Nevada Coffee Stout",53,6.2,186,"Stout","Stout",293,98,"Sierra Nevada Brewing Company","Commercial Brewery","Chico","CA","95928","7,067","17127",39.720955,-121.81888
"241","Kane Port Omna - Coconut, Cinnamon, & Lactose",NA,6.6,198,"Stout","Stout",13,98,"Kane Brewing Company","Microbrewery","Asbury Park","NJ","07712","1,479","2972",40.232713,-74.03143
"242","Wrecking Bar Jemmy American Stout",42,6.4,192,"Stout","Stout",44,98,"Wrecking Bar Brewpub","Brew Pub/Brewery","Atlanta","GA","30307","1,657","28259",33.768205,-84.33786
"243","Wrecking Bar Jemmy Dean Breakfast Stout",42,5.8,174,"Stout","Stout",36,98,"Wrecking Bar Brewpub","Brew Pub/Brewery","Atlanta","GA","30307","1,657","28259",33.768205,-84.33786
"244","Dark Horse Tres Blueberry Stout",NA,7.5,225,"Stout","Stout",1106,98,"Dark Horse Brewing Company","Microbrewery","Marshall","MI","49068","23,323","18051",42.277837,-84.94869
"245","Central Waters Brewhouse Coffee Stout",NA,7.8,234,"Stout","Stout",297,98,"Central Waters Brewing Co.","Microbrewery","Amherst","WI","54406","896","12037",44.421111,-89.30618
"246","Founders Mackinaw Fudge (MF) Donkey Stout",NA,7,210,"Stout","Stout",13,99,"Founders Brewing Company","Microbrewery","Grand Rapids","MI","49503","15,169","13540",42.964176,-85.65885
"247","Kuhnhenn Cr??me Br??l??e Java Stout",NA,5.8,174,"Stout","Stout",218,98,"Kuhnhenn Brewing","Brew Pub","Warren","MI","48092","40,506","23808",42.511293,-83.0597
"248","Mikkeller San Diego Viking Club #1: Maple Bourbon Barrel Aged Rauch Geek",NA,7.5,225,"Stout","Stout",22,97,"Mikkeller San Diego","Microbrewery","San Diego","CA","92126","34,375","6960",32.914346,-117.14116
"249","Ale Asylum Big Slick",NA,7,210,"Stout","Stout",118,98,"Ale Asylum","Brew Pub/Brewery","Madison","WI","53704","22,753","542",43.121416,-89.34968
"250","High Water Campfire Stout",39,6.5,195,"Stout","Stout",333,97,"High Water Brewing","Microbrewery","Pittsburg","CA","94565","30,369","1854",38.017917,-121.90502
"251","Kuhnhenn Raspberry Eisbock",NA,15.5,465,"Fruit Beer","Other (Cider, Mead, etc.)",958,100,"Kuhnhenn Brewing","Brew Pub","Warren","MI","48092","40,506","23808",42.511293,-83.0597
"252","New Glarus Wisconsin Belgian Red",NA,4,120,"Fruit Beer","Other (Cider, Mead, etc.)",1533,100,"New Glarus Brewing Company","Microbrewery","New Glarus","WI","53574","26,685","20574",42.81636,-89.64075
"253","Selins Grove The Phoenix Kriek",NA,8,240,"Fruit Beer","Other (Cider, Mead, etc.)",273,100,"Selins Grove Brewing Co.","Brew Pub","Selinsgrove","PA","17870","35,338","7755",40.812047,-76.86138
"254","Hair of the Dog Adam",NA,10,300,"Traditional Ale","Brown/Amber Ale",1804,100,"Hair of the Dog Brewing Company","Brew Pub/Brewery","Portland","OR","97214","30,980","10960",45.51379,-122.6458
"255","Belching Beaver ??Viva La Beaver!",NA,7.5,225,"Sweet Stout","Stout",32,97,"Belching Beaver","Microbrewery","Vista","CA","92081",NA,"10674",33.213309,-117.21474
"256","Mantra Guru Gish",20,6,180,"Sweet Stout","Stout",11,97,"Mantra Artisan Ales","Microbrewery","Franklin","TN","37067","13,724","123",35.921811,-86.7952
"257","New Glarus Serendipity",NA,5.1,153,"Fruit Beer","Other (Cider, Mead, etc.)",599,100,"New Glarus Brewing Company","Microbrewery","New Glarus","WI","53574","26,685","20574",42.81636,-89.64075
"258","New Glarus Strawberry Rhubarb",NA,4,120,"Fruit Beer","Other (Cider, Mead, etc.)",392,99,"New Glarus Brewing Company","Microbrewery","New Glarus","WI","53574","26,685","20574",42.81636,-89.64075
"259","Southern Tier Oaked Pumking",NA,8.6,258,"Spice/Herb/Vegetable","Other (Cider, Mead, etc.)",67,99,"Southern Tier Brewing Company (ABV)","Commercial Brewery","Lakewood","NY","14750","20,423","23514",42.098657,-79.32439
"260","Upright Special Herbs",NA,5.7,171,"Traditional Ale","Brown/Amber Ale",112,99,"Upright Brewing","Microbrewery","Portland","OR","97227","30,957","10960",45.543831,-122.67497
"261","New Glarus Raspberry Tart",NA,4,120,"Fruit Beer","Other (Cider, Mead, etc.)",1285,100,"New Glarus Brewing Company","Microbrewery","New Glarus","WI","53574","26,685","20574",42.81636,-89.64075
"262","The Ale Apothecary Sahati",NA,11,330,"Sahti/Gotlandsdricke/Kodu??lu","Other (Cider, Mead, etc.)",83,99,"The Ale Apothecary","Microbrewery","Bend","OR","97701","3,026","4847",44.091256,-121.29769
"263","Noble Ale Works Naughty Sauce",NA,5.5,165,"Spice/Herb/Vegetable","Other (Cider, Mead, etc.)",44,99,"Noble Ale Works","Microbrewery","Anaheim","CA","92806","935","14147",33.835465,-117.87362
"264","Selins Grove Pumpkin Ale",NA,4.7,141,"Spice/Herb/Vegetable","Other (Cider, Mead, etc.)",38,99,"Selins Grove Brewing Co.","Brew Pub","Selinsgrove","PA","17870","35,338","7755",40.812047,-76.86138
"265","Left Hand SmokeJumper Imperial Smoked Porter",50,8.8,264,"Smoked","Porter",773,99,"Left Hand Brewing Company","Microbrewery","Longmont","CO","80501","21,979","3718",40.171484,-105.10033
"266","De Garde Boysenberry Bu",NA,4.3,129,"Fruit Beer","Other (Cider, Mead, etc.)",41,99,"De Garde Brewing","Microbrewery","Tillamook","OR","97141","38,521","11640",45.459109,-123.80389
"267","New Glarus Thumbprint Series Cran-bic Ale",NA,6,180,"Fruit Beer","Other (Cider, Mead, etc.)",487,99,"New Glarus Brewing Company","Microbrewery","New Glarus","WI","53574","26,685","20574",42.81636,-89.64075
"268","Alaskan Smoked Porter",45,6.5,195,"Smoked","Porter",1786,99,"Alaskan Brewing Company","Microbrewery","Juneau","AK","99801","19,160","7606",58.358599,-134.54749
"269","Hardywood Bourbon GBS (Gingerbread Stout)",55,11,330,"Spice/Herb/Vegetable","Other (Cider, Mead, etc.)",138,99,"Hardywood Park Craft Brewery","Microbrewery","Richmond","VA","23220","32,286","23801",37.549396,-77.45739
"270","Founders Backstage Series # 1: Blushing Monk",NA,9.2,276,"Fruit Beer","Other (Cider, Mead, etc.)",603,99,"Founders Brewing Company","Microbrewery","Grand Rapids","MI","49503","15,169","13540",42.964176,-85.65885
"271","Blue Tractor Schakolad Weizen",NA,5.5,165,"Spice/Herb/Vegetable","Other (Cider, Mead, etc.)",23,98,"Blue Tractor BBQ & Brewery","Brew Pub","Ann Arbor","MI","48104","1,091","13177",42.266805,-83.72297
"272","Cigar City Pilot Series Pineapple Kolsch",NA,5,150,"Fruit Beer","Other (Cider, Mead, etc.)",15,98,"Cigar City Brewing","Microbrewery","Tampa","FL","33607","38,089","24636",27.963798,-82.49537
"273","Midnight Sun T.R.E.A.T. Imperial Chocolate Pumpkin Porter",30,7.8,234,"Spice/Herb/Vegetable","Other (Cider, Mead, etc.)",446,99,"Midnight Sun Brewing Company","Microbrewery","Anchorage","AK","99507","973","29536",61.154834,-149.82865
"274","Founders Barrel Aged Red??s Rye",NA,9.2,276,"Specialty Grain","Other (Cider, Mead, etc.)",91,99,"Founders Brewing Company","Microbrewery","Grand Rapids","MI","49503","15,169","13540",42.964176,-85.65885
"275","Wicked Weed Barrel Aged Xibalba",NA,9.5,285,"Spice/Herb/Vegetable","Other (Cider, Mead, etc.)",24,99,"Wicked Weed Brewing (AB-InBev)","Brew Pub","Asheville","NC","28801","1,502","13139",35.595661,-82.55632
"276","Founders Backstage Series # 9: Smoked Porter",NA,8,240,"Smoked","Porter",104,99,"Founders Brewing Company","Microbrewery","Grand Rapids","MI","49503","15,169","13540",42.964176,-85.65885
"277","Avery Rumpkin",15,18.1,543,"Spice/Herb/Vegetable","Other (Cider, Mead, etc.)",453,99,"Avery Brewing Company","Commercial Brewery","Boulder","CO","80301","4,134","18719",40.044385,-105.21928
"278","Avery Pump[KY]n",NA,16.54,496,"Spice/Herb/Vegetable","Other (Cider, Mead, etc.)",248,98,"Avery Brewing Company","Commercial Brewery","Boulder","CO","80301","4,134","18719",40.044385,-105.21928
"279","Selins Grove Saison de Peche",NA,NA,NA,"Fruit Beer","Other (Cider, Mead, etc.)",59,99,"Selins Grove Brewing Co.","Brew Pub","Selinsgrove","PA","17870","35,338","7755",40.812047,-76.86138
"280","Ommegang Abbey Ale",20,8.2,246,"Abbey Dubbel","Strong Ale",2253,99,"Brewery Ommegang  (Duvel-Moortgat)","Microbrewery","Cooperstown","NY","13326","8,451","16805",42.703091,-74.91413
"281","Sierra Nevada Ovila Dubbel - Barrel Aged",NA,7.5,225,"Abbey Dubbel","Strong Ale",126,97,"Sierra Nevada Brewing Company","Commercial Brewery","Chico","CA","95928","7,067","17127",39.720955,-121.81888
"282","Sierra Nevada Ovila Dubbel - Red Wine And Bourbon Barrel",NA,8.5,255,"Abbey Dubbel","Strong Ale",22,98,"Sierra Nevada Brewing Company","Commercial Brewery","Chico","CA","95928","7,067","17127",39.720955,-121.81888
"283","Tree House Double Shot",NA,7.6,228,"Sweet Stout","Stout",61,100,"Tree House Brewing Company","Microbrewery","Monson","MA","01057","25,265","15190",42.089269,-72.317
"284","Dogfish Head URKontinent",14,8,240,"Abbey Dubbel","Strong Ale",238,97,"Dogfish Head Brewery","Microbrewery","Milton","DE","19968","24,767","17899",38.772648,-75.28665
"285","Rockmill Cask Aged Dubbel",NA,10.5,315,"Abbey Dubbel","Strong Ale",10,97,"Rockmill Brewing Company","Microbrewery","Lancaster","OH","43130","20,516","21367",39.712887,-82.61216
"286","Ommegang Game of Thrones #4 - Valar Morghulis",NA,8,240,"Abbey Dubbel","Strong Ale",370,95,"Brewery Ommegang  (Duvel-Moortgat)","Microbrewery","Cooperstown","NY","13326","8,451","16805",42.703091,-74.91413
"287","Lost Abbey Lost and Found",NA,8,240,"Abbey Dubbel","Strong Ale",907,96,"Port Brewing Company / The Lost Abbey","Microbrewery","San Marcos","CA","92069","34,651","17796",33.144908,-117.17128
"288","Goose Island Pere Jacques",26,8.7,261,"Abbey Dubbel","Strong Ale",1346,95,"Goose Island Beer Company (AB-InBev)","Commercial Brewery","Chicago","IL","60612","6,982","11056",41.880682,-87.6877
"289","New Glarus Anniversary Strong Ale",NA,NA,NA,"Abbey Dubbel","Strong Ale",169,95,"New Glarus Brewing Company","Microbrewery","New Glarus","WI","53574","26,685","20574",42.81636,-89.64075
"290","Ommegang Upside Brown",NA,7,210,"Abbey Dubbel","Strong Ale",67,95,"Brewery Ommegang  (Duvel-Moortgat)","Microbrewery","Cooperstown","NY","13326","8,451","16805",42.703091,-74.91413
"291","Fall Plenty For All",NA,4.9,147,"California Common","Pils/Lager",17,68,"Fall Brewing Company","Microbrewery","San Diego","CA","92116","34,339","6960",32.76235,-117.12246
"292","Boaks Wooden Beanie",28,7,210,"Abbey Dubbel","Strong Ale",16,95,"Boaks","Client Brewer","Pompton Lakes","NJ","07442","30,790","21981",40.99948,-74.28807
"293","Heavy Seas Uncharted Waters: Holy Sheet (2013 -)",38,9,270,"Abbey Dubbel","Strong Ale",73,95,"Heavy Seas Brewing Company","Microbrewery","Halethorpe","MD","21227","15,910","11875",39.241957,-76.67712
"294","New Belgium Abbey Dubbel",NA,7,210,"Abbey Dubbel","Strong Ale",1218,94,"New Belgium Brewing Company","Commercial Brewery","Fort Collins","CO","80524","13,271","4667",40.606962,-105.05106
"295","Vintage Apple Brandy Barrel-Aged Dedication",NA,10.5,315,"Abbey Dubbel","Strong Ale",10,95,"Vintage Brewing Company","Brew Pub","Madison","WI","53719","22,764","542",43.029497,-89.50531
"296","Captain Lawrence St. Vincents Dubbel",NA,8,240,"Abbey Dubbel","Strong Ale",359,94,"Captain Lawrence Brewing Company","Microbrewery","Elmsford","NY","10523","11,727","16025",41.057089,-73.81658
"297","Sierra Nevada Ovila Dubbel",NA,7.5,225,"Abbey Dubbel","Strong Ale",534,93,"Sierra Nevada Brewing Company","Commercial Brewery","Chico","CA","95928","7,067","17127",39.720955,-121.81888
"298","Arizona Wilderness Aravaipa Abbey Dubbel",NA,6.3,189,"Abbey Dubbel","Strong Ale",23,93,"Arizona Wilderness Brewing Company","Brew Pub","Gilbert","AZ","85233","14,553","26038",33.348593,-111.80833
"299","Russian River Benediction",NA,6.75,202,"Abbey Dubbel","Strong Ale",108,91,"Russian River Brewing","Brew Pub/Brewery","Santa Rosa","CA","95404","34,794","22924",38.457611,-122.69317
"300","Allagash Dubbel Reserve",NA,7,210,"Abbey Dubbel","Strong Ale",1088,91,"Allagash Brewing Company","Microbrewery","Portland","ME","04103","30,945","11808",43.685882,-70.2903
"301","Sierra Nevada Double Dubbel",NA,10.5,315,"Abbey Dubbel","Strong Ale",39,92,"Sierra Nevada Brewing Company","Commercial Brewery","Chico","CA","95928","7,067","17127",39.720955,-121.81888
"302","Anderson Valley Brother David??s Double Abbey-Style Ale",17,9,270,"Abbey Dubbel","Strong Ale",604,90,"Anderson Valley Brewing Company","Microbrewery","Boonville","CA","95415","4,015","5894",39.026811,-123.38621
"303","Ale Asylum Diablo Belga",NA,9.2,276,"Abbey Dubbel","Strong Ale",48,90,"Ale Asylum","Brew Pub/Brewery","Madison","WI","53704","22,753","542",43.121416,-89.34968
"304","Voodoo Tenacious Wee (Eagle Rare)",NA,11.7,351,"Scotch Ale","Strong Ale",36,97,"Voodoo Brewing Co.","Microbrewery","Meadville","PA","16335","23,875","18979",41.637502,-80.15214
"305","Cherry Street Dylan??s Dubbel",23,7,210,"Abbey Dubbel","Strong Ale",10,89,"Cherry Street Brewing Cooperative","Brew Pub","Cumming","GA","30040","9,124","9928",34.235408,-84.17441
"306","New Glarus Thumbprint Series Dubbel",30,7.6,228,"Abbey Dubbel","Strong Ale",97,88,"New Glarus Brewing Company","Microbrewery","New Glarus","WI","53574","26,685","20574",42.81636,-89.64075
"307","Saint Arnold Icon Red - Sorachi Ace Dubbel",40,7.9,237,"Abbey Dubbel","Strong Ale",18,90,"Saint Arnold Brewing Company","Brew Pub/Brewery","Houston","TX","77020","17,705","8885",29.775927,-95.31836
"308","Cigar City Cafe Con Leche Stout",NA,8,240,"Sweet Stout","Stout",82,100,"Cigar City Brewing","Microbrewery","Tampa","FL","33607","38,089","24636",27.963798,-82.49537
"309","Oceanside Ale Works Big Ru Scottish Wee Heavy",NA,11.1,333,"Scottish Ale","Brown/Amber Ale",13,97,"Oceanside Ale Works","Microbrewery","Oceanside","CA","92056","28,073","163",33.195354,-117.28232
"310","Hill Farmstead Earl",NA,7.2,216,"Sweet Stout","Stout",238,100,"Hill Farmstead Brewery","Microbrewery","Greensboro Bend","VT","05842","15,509","16829",44.574196,-72.24333
"311","Surly Four",NA,9.4,282,"Sweet Stout","Stout",188,100,"Surly Brewing Company","Microbrewery","Minneapolis","MN","55414","24,923","23182",44.980379,-93.23003
"312","Firestone Walker Velvet Merkin",32,8.5,255,"Sweet Stout","Stout",513,99,"Firestone Walker Brewing (Duvel-Moortgat)","Commercial Brewery","Paso Robles","CA","93446","29,400","8515",35.640589,-120.70418
"313","Angry Chair German Chocolate Cupcake Stout - Coffee",NA,7.5,225,"Sweet Stout","Stout",42,99,"Angry Chair Brewing","Microbrewery","Tampa","FL","33604","38,101","24636",28.016846,-82.4566
"314","Angry Chair Tiramisu",NA,8,240,"Sweet Stout","Stout",51,99,"Angry Chair Brewing","Microbrewery","Tampa","FL","33604","38,101","24636",28.016846,-82.4566
"315","Highland Black Watch Double Chocolate Milk Stout",45,8,240,"Sweet Stout","Stout",24,99,"Highland Brewing Company","Microbrewery","Asheville","NC","28803","1,504","13139",35.54179,-82.52307
"316","Angry Chair The Awakening Coffee Milk Stout",NA,7.4,222,"Sweet Stout","Stout",64,99,"Angry Chair Brewing","Microbrewery","Tampa","FL","33604","38,101","24636",28.016846,-82.4566
"317","McFate Candy Bar Milk Stout",25,5.8,174,"Sweet Stout","Stout",47,99,"McFate Brewing Company","Brew Pub","Scottsdale","AZ","85260","35,121","20028",33.606004,-111.88699
"318","Tree House Single Shot",NA,6.4,192,"Sweet Stout","Stout",52,99,"Tree House Brewing Company","Microbrewery","Monson","MA","01057","25,265","15190",42.089269,-72.317
"319","Tree House All That Is and All That Ever Will Be",NA,6.5,195,"Sweet Stout","Stout",23,99,"Tree House Brewing Company","Microbrewery","Monson","MA","01057","25,265","15190",42.089269,-72.317
"320","Town Hall Coconut Milk Stout",NA,5.6,168,"Sweet Stout","Stout",79,99,"Minneapolis Town Hall Brewery","Brew Pub","Minneapolis","MN","55454","24,952","23182",44.969465,-93.24327
"321","Rogue Chocolate Stout",69,5.8,174,"Sweet Stout","Stout",2554,99,"Rogue Ales","Microbrewery","Newport","OR","97365","26,944","13985",44.649252,-124.05039
"322","Three Floyds Wigsplitter",NA,7.7,231,"Sweet Stout","Stout",136,99,"Three Floyds Brewing Company","Microbrewery","Munster","IN","46321","26,021","15101",41.551457,-87.50143
"323","Angry Chair German Chocolate Cupcake Stout",30,7.5,225,"Sweet Stout","Stout",95,99,"Angry Chair Brewing","Microbrewery","Tampa","FL","33604","38,101","24636",28.016846,-82.4566
"324","Three Floyds Moloko",30,8,240,"Sweet Stout","Stout",678,98,"Three Floyds Brewing Company","Microbrewery","Munster","IN","46321","26,021","15101",41.551457,-87.50143
"325","Summit Unchained 23 - Dark Infusion",40,8.5,255,"Sweet Stout","Stout",20,98,"Summit Brewing Company","Microbrewery","Saint Paul","MN","55102","33,838","25740",44.935315,-93.12049
"326","Funky Buddha Piiti Porter - Vanilla Espresso",NA,6.3,189,"Sweet Stout","Stout",14,99,"Funky Buddha Brewery","Brew Pub/Brewery","Fort Lauderdale","FL","33334","13,345","27821",26.182161,-80.13341
"327","Tree House Single Shot - Vanilla Bean",NA,6.4,192,"Sweet Stout","Stout",23,98,"Tree House Brewing Company","Microbrewery","Monson","MA","01057","25,265","15190",42.089269,-72.317
"328","La Cumbre Cafe Con Leche",30,6,180,"Sweet Stout","Stout",33,98,"La Cumbre Brewing Company","Brew Pub/Brewery","Albuquerque","NM","87107","415","18536",35.134094,-106.64073
"329","Dangerous Man Coconut Milk Stout",24,5.8,174,"Sweet Stout","Stout",27,98,"Dangerous Man Brewing Company","Microbrewery","Minneapolis","MN","55413","24,922","23182",44.997665,-93.24927
"330","Terrapin Moo-HooChiato",NA,6.1,183,"Sweet Stout","Stout",111,98,"Terrapin Beer Company","Microbrewery","Athens","GA","30607","1,613","10240",34.013154,-83.43565
"331","Saugatuck Barrel Aged Neapolitan Milk Stout",NA,6.5,195,"Sweet Stout","Stout",75,98,"Saugatuck Brewing Company","Microbrewery","Douglas","MI","49406","10,508","7195",42.643315,-86.20404
"332","Dark Horse One Oatmeal Stout",NA,8,240,"Sweet Stout","Stout",784,98,"Dark Horse Brewing Company","Microbrewery","Marshall","MI","49068","23,323","18051",42.277837,-84.94869
"333","Angry Chair The Wilfred",NA,NA,NA,"Sweet Stout","Stout",38,97,"Angry Chair Brewing","Microbrewery","Tampa","FL","33604","38,101","24636",28.016846,-82.4566
"334","Dark Horse Too Cream Stout",NA,7,210,"Sweet Stout","Stout",854,97,"Dark Horse Brewing Company","Microbrewery","Marshall","MI","49068","23,323","18051",42.277837,-84.94869
"335","Arizona Wilderness Signal Mountain Stout",NA,5.8,174,"Sweet Stout","Stout",18,98,"Arizona Wilderness Brewing Company","Brew Pub","Gilbert","AZ","85233","14,553","26038",33.348593,-111.80833
"336","Burial Tin Cup Yirgacheffe Stout",44,5.6,168,"Sweet Stout","Stout",17,97,"Burial Beer Company","Microbrewery","Asheville","NC","28801","1,502","13139",35.595661,-82.55632
"337","Parish R??ve Coffee Stout",NA,6.6,198,"Sweet Stout","Stout",13,97,"Parish Brewing Company","Microbrewery","Broussard","LA","70518","4,848","28095",30.134801,-91.95251
"338","Tree House That??s What She Said",NA,5.4,162,"Sweet Stout","Stout",52,97,"Tree House Brewing Company","Microbrewery","Monson","MA","01057","25,265","15190",42.089269,-72.317
"339","Finch Secret Stache Stout",NA,5.3,159,"Sweet Stout","Stout",325,97,"Finch Beer Co","Microbrewery","Chicago","IL","60630","6,999","11056",41.971044,-87.75869
"340","Lancaster Double Chocolate Milk Stout",33,6.8,204,"Sweet Stout","Stout",67,97,"Lancaster Brewing Co.","Microbrewery","Lancaster","PA","17602","20,517","6659",40.032664,-76.27575
"341","Funky Buddha Espresso Porter",35,6.3,189,"Sweet Stout","Stout",23,97,"Funky Buddha Brewery","Brew Pub/Brewery","Fort Lauderdale","FL","33334","13,345","27821",26.182161,-80.13341
"342","Speakeasy Black Hand Chocolate Milk Stout",NA,6.9,207,"Sweet Stout","Stout",87,97,"Speakeasy Ales and Lagers","Microbrewery","San Francisco","CA","94124","34,446","9350",37.732797,-122.39348
"343","AleSmith Wee Heavy Scotch Ale - Bourbon Barrel",NA,10,300,"Scotch Ale","Strong Ale",527,100,"AleSmith Brewing Company","Microbrewery","San Diego","CA","92126","34,375","6960",32.914346,-117.14116
"344","AleSmith Wee Heavy Scotch Ale",26,10,300,"Scotch Ale","Strong Ale",1447,100,"AleSmith Brewing Company","Microbrewery","San Diego","CA","92126","34,375","6960",32.914346,-117.14116
"345","Founders Backwoods Bastard",50,11.6,348,"Scotch Ale","Strong Ale",1947,100,"Founders Brewing Company","Microbrewery","Grand Rapids","MI","49503","15,169","13540",42.964176,-85.65885
"346","Selins Grove Bourbon St. Fillans Wee Heavy",NA,11,330,"Scotch Ale","Strong Ale",15,99,"Selins Grove Brewing Co.","Brew Pub","Selinsgrove","PA","17870","35,338","7755",40.812047,-76.86138
"347","Town Hall Wee Heavy",NA,8.5,255,"Scotch Ale","Strong Ale",88,99,"Minneapolis Town Hall Brewery","Brew Pub","Minneapolis","MN","55454","24,952","23182",44.969465,-93.24327
"348","Thirsty Dog Wulver",22,12,360,"Scotch Ale","Strong Ale",223,99,"Thirsty Dog Brewing Company","Brew Pub/Brewery","Akron","OH","44311","247","23066",41.063055,-81.51906
"349","Cigar City Big Sound Scotch Ale - Bourbon Barrel Aged",NA,NA,NA,"Scotch Ale","Strong Ale",315,99,"Cigar City Brewing","Microbrewery","Tampa","FL","33607","38,089","24636",27.963798,-82.49537
"350","Central Waters Brewer??s Reserve Bourbon Barrel Scotch Ale",NA,NA,NA,"Scotch Ale","Strong Ale",182,99,"Central Waters Brewing Co.","Microbrewery","Amherst","WI","54406","896","12037",44.421111,-89.30618
"351","Revolution Gravedigger Billy",NA,10.4,312,"Scotch Ale","Strong Ale",74,99,"Revolution Brewing Company","Brew Pub","Chicago","IL","60647","7,014","11056",41.921126,-87.70085
"352","AleSmith Wee Heavy Scotch Ale - Port Barrel Aged",NA,10,300,"Scotch Ale","Strong Ale",45,99,"AleSmith Brewing Company","Microbrewery","San Diego","CA","92126","34,375","6960",32.914346,-117.14116
"353","Real Ale The Highlander",NA,9.7,291,"Scotch Ale","Strong Ale",41,98,"Real Ale Brewing Company","Microbrewery","Blanco","TX","78606","3,647","24350",30.096855,-98.43411
"354","Cigar City Big Sound Scotch Ale",NA,8.5,255,"Scotch Ale","Strong Ale",562,98,"Cigar City Brewing","Microbrewery","Tampa","FL","33607","38,089","24636",27.963798,-82.49537
"355","Rip Current Black Lagoon - Bourbon Barrel",NA,11.5,345,"Scotch Ale","Strong Ale",13,98,"Rip Current Brewing","Microbrewery","San Marcos","CA","92078","34,650","17796",33.122029,-117.15605
"356","Beachwood Barrel Aged Full Malted Jacket",NA,12,360,"Scotch Ale","Strong Ale",30,98,"Beachwood BBQ & Brewing","Brew Pub/Brewery","Long Beach","CA","90802","21,921","29422",33.769018,-118.19225
"357","Oskar Blues Old Chub (Bourbon Barrel)",NA,8,240,"Scotch Ale","Strong Ale",111,98,"Oskar Blues Brewery","Microbrewery","Longmont","CO","80501","21,979","3718",40.171484,-105.10033
"358","Founders Dirty Bastard Scotch Ale",50,8.5,255,"Scotch Ale","Strong Ale",2539,97,"Founders Brewing Company","Microbrewery","Grand Rapids","MI","49503","15,169","13540",42.964176,-85.65885
"359","Sierra Nevada Trip in the Woods: Barrel-Aged Maple Scotch Style Ale",NA,11,330,"Scotch Ale","Strong Ale",13,97,"Sierra Nevada Brewing Company","Commercial Brewery","Chico","CA","95928","7,067","17127",39.720955,-121.81888
"360","Sierra Nevada Barrel Aged Scotch Ale",NA,8.8,264,"Scotch Ale","Strong Ale",34,97,"Sierra Nevada Brewing Company","Commercial Brewery","Chico","CA","95928","7,067","17127",39.720955,-121.81888
"361","Highland Tasgall Ale",34,8,240,"Scotch Ale","Strong Ale",294,97,"Highland Brewing Company","Microbrewery","Asheville","NC","28803","1,504","13139",35.54179,-82.52307
"362","Saint Arnold Bishop??s Barrel #5",NA,NA,NA,"Scotch Ale","Strong Ale",31,97,"Saint Arnold Brewing Company","Brew Pub/Brewery","Houston","TX","77020","17,705","8885",29.775927,-95.31836
"363","Cigar City The Sound of Big Nuts",NA,8.5,255,"Scotch Ale","Strong Ale",32,98,"Cigar City Brewing","Microbrewery","Tampa","FL","33607","38,089","24636",27.963798,-82.49537
"364","Kuhnhenn A Few Shillings Too Many",NA,12.5,375,"Scotch Ale","Strong Ale",131,97,"Kuhnhenn Brewing","Brew Pub","Warren","MI","48092","40,506","23808",42.511293,-83.0597
"365","Pipeworks The Last Kiss (Bourbon Barrel Aged)",NA,11,330,"Scotch Ale","Strong Ale",22,97,"Pipeworks Brewing Company","Microbrewery","Chicago","IL","60647","7,014","11056",41.921126,-87.70085
"366","Oskar Blues Old Chub",NA,8,240,"Scotch Ale","Strong Ale",2125,96,"Oskar Blues Brewery","Microbrewery","Longmont","CO","80501","21,979","3718",40.171484,-105.10033
"367","Town Hall Barrel Aged Wee Heavy",NA,8.7,261,"Scotch Ale","Strong Ale",37,97,"Minneapolis Town Hall Brewery","Brew Pub","Minneapolis","MN","55454","24,952","23182",44.969465,-93.24327
"368","Triumph Jewish Rye Beer",NA,5.7,171,"Specialty Grain","Other (Cider, Mead, etc.)",87,97,"Triumph Brewing Company","Brew Pub","Princeton","NJ","08542","31,319","3808",40.354424,-74.65943
"369","La Cumbre Red Ryeot",75,6.5,195,"Specialty Grain","Other (Cider, Mead, etc.)",43,97,"La Cumbre Brewing Company","Brew Pub/Brewery","Albuquerque","NM","87107","415","18536",35.134094,-106.64073
"370","Grand Teton Sheep Eater Scotch Ale",NA,7.5,225,"Scotch Ale","Strong Ale",89,96,"Grand Teton Brewing Co.","Brew Pub/Brewery","Victor","ID","83455","39,965","19559",43.636332,-111.14842
"371","The Bruery Chronology: 6 Wee Heavy",NA,13.7,411,"Scotch Ale","Strong Ale",32,96,"The Bruery","Microbrewery","Placentia","CA","92870","30,479","5453",33.883314,-117.85446
"372","Stoudts Barrel Aged Scotch Style Ale",NA,7,210,"Scotch Ale","Strong Ale",46,97,"Stoudts Brewing Co.","Microbrewery","Adamstown","PA","19501","116","8055",40.241588,-76.05765
"373","Sun King Diddy Muckle",23,8,240,"Scotch Ale","Strong Ale",34,96,"Sun King Brewing Company","Microbrewery","Indianapolis","IN","46202","18,239","28532",39.782842,-86.15673
"374","Oskar Blues Old Chub (Oak-aged)",NA,8,240,"Scotch Ale","Strong Ale",19,96,"Oskar Blues Brewery","Microbrewery","Longmont","CO","80501","21,979","3718",40.171484,-105.10033
"375","Silver City Fat Woody Scotch Ale",25,9.2,276,"Scotch Ale","Strong Ale",118,96,"Silver City Brewery","Microbrewery","Bremerton","WA","98312","4,438","5499",47.564437,-122.71293
"376","Shoreline Big Bourbon Series Big Bella Scotch Ale",NA,11,330,"Scotch Ale","Strong Ale",64,96,"Shoreline Brewery","Brew Pub","Michigan City","IN","46360","24,435","4710",41.707539,-86.87902
"377","Pizza Boy Simcoe SamuRYE",NA,6.8,204,"Specialty Grain","Other (Cider, Mead, etc.)",49,97,"Pizza Boy Brewing","Brew Pub","Enola","PA","17025","12,079","16146",40.28807,-76.94251
"378","Smokehouse Robert Burns Scottish Export Ale (2003-)",23,9.7,291,"Scotch Ale","Strong Ale",32,96,"Smokehouse Brewing Company","Brew Pub","Columbus","OH","43215","8,194","9099",39.965131,-83.00431
"379","Founders Barrel Aged Red??s Rye",NA,9.2,276,"Specialty Grain","Other (Cider, Mead, etc.)",91,99,"Founders Brewing Company","Microbrewery","Grand Rapids","MI","49503","15,169","13540",42.964176,-85.65885
"380","Boulevard Smokestack Series: Rye-on-Rye-on-Rye",33,14,420,"Specialty Grain","Other (Cider, Mead, etc.)",54,98,"Boulevard Brewing Company (Duvel-Moortgat)","Commercial Brewery","Kansas City","MO","64108","19,278","21489",39.084554,-94.58296
"381","Founders Black Rye",78,7.5,225,"Specialty Grain","Other (Cider, Mead, etc.)",719,97,"Founders Brewing Company","Microbrewery","Grand Rapids","MI","49503","15,169","13540",42.964176,-85.65885
"382","Two Brothers Cane and Ebel",68,7,210,"Specialty Grain","Other (Cider, Mead, etc.)",757,95,"Two Brothers Brewing Company","Microbrewery","Warrenville","IL","60555","40,542","7526",41.82552,-88.19452
"383","Stone Stochasticity Project Grainiac",60,8.5,255,"Specialty Grain","Other (Cider, Mead, etc.)",163,94,"Stone Brewing","Commercial Brewery","Escondido","CA","92029","12,182","17514",33.087868,-117.11558
"384","Moab Brewery Desert Select Hopped Rye",NA,8.59,258,"Specialty Grain","Other (Cider, Mead, etc.)",30,94,"Moab Brewery","Brew Pub/Brewery","Moab","UT","84532","25,062","23856",38.572778,-109.49392
"385","Terrapin Side Project Mosaic",NA,6.6,198,"Specialty Grain","Other (Cider, Mead, etc.)",300,94,"Terrapin Beer Company","Microbrewery","Athens","GA","30607","1,613","10240",34.013154,-83.43565
"386","Sixpoint Righteous Ale",NA,6.3,189,"Specialty Grain","Other (Cider, Mead, etc.)",458,89,"Sixpoint Brewery","Microbrewery","Brooklyn","NY","11231","4,777","4881",40.672666,-73.87248
"387","Left Hand Rye on the Prize",NA,8,240,"Specialty Grain","Other (Cider, Mead, etc.)",32,93,"Left Hand Brewing Company","Microbrewery","Longmont","CO","80501","21,979","3718",40.171484,-105.10033
"388","Southern Tier 2XRYE",NA,8.1,243,"Specialty Grain","Other (Cider, Mead, etc.)",238,94,"Southern Tier Brewing Company (ABV)","Commercial Brewery","Lakewood","NY","14750","20,423","23514",42.098657,-79.32439
"389","Pizza Boy Rye Beer Sucks!",NA,6,180,"Specialty Grain","Other (Cider, Mead, etc.)",17,92,"Pizza Boy Brewing","Brew Pub","Enola","PA","17025","12,079","16146",40.28807,-76.94251
"390","Tired Hands Aloysius",NA,5,150,"Specialty Grain","Other (Cider, Mead, etc.)",15,93,"Tired Hands Brewing Company","Brew Pub/Brewery","Ardmore","PA","19003","1,264","18571",40.000861,-75.29694
"391","Left Hand Fade To Black Vol. 5: Black Rye Ale",NA,7.8,234,"Specialty Grain","Other (Cider, Mead, etc.)",174,91,"Left Hand Brewing Company","Microbrewery","Longmont","CO","80501","21,979","3718",40.171484,-105.10033
"392","Mayflower Autumn Wheat Ale",NA,4.8,144,"Dunkelweizen","Wheat Beer",30,77,"Mayflower Brewing Company","Microbrewery","Plymouth","MA","02360","30,651","25207",41.894676,-70.61999
"393","Upright Six (#6)",NA,6.7,201,"Specialty Grain","Other (Cider, Mead, etc.)",330,90,"Upright Brewing","Microbrewery","Portland","OR","97227","30,957","10960",45.543831,-122.67497
"394","Turtle Anarchy Another Way to Rye",60,6.2,186,"Specialty Grain","Other (Cider, Mead, etc.)",27,90,"Turtle Anarchy Brewing Company","Microbrewery","Franklin","TN","37064","13,722","123",35.893823,-86.89919
"395","Hi-Wire Lion Tamer Red Rye",90,7,210,"Specialty Grain","Other (Cider, Mead, etc.)",17,90,"Hi-Wire Brewing","Microbrewery","Asheville","NC","28801","1,502","13139",35.595661,-82.55632
"396","Tenaya Creek Red Ryder",NA,6.7,201,"Specialty Grain","Other (Cider, Mead, etc.)",41,91,"Tenaya Creek Brewery","Brew Pub/Brewery","Las Vegas","NV","89128","20,757","21660",36.193501,-115.265
"397","Stillwater Extra Dry",NA,4.2,126,"Specialty Grain","Other (Cider, Mead, etc.)",114,90,"Stillwater Artisanal","Client Brewer","Baltimore","MD","21224","2,278","7362",39.284607,-76.55696
"398","Stone Spr??cket Bier",NA,5.4,162,"Specialty Grain","Other (Cider, Mead, etc.)",398,90,"Stone Brewing","Commercial Brewery","Escondido","CA","92029","12,182","17514",33.087868,-117.11558
"399","Cambridge Banryu Ichi",NA,15,450,"Specialty Grain","Other (Cider, Mead, etc.)",20,90,"Cambridge Brewing Company","Brew Pub/Brewery","Cambridge","MA","02139","5,549","8834",42.364347,-71.10431
"400","Against the Grain Kentucky Ryed Chiquen",27,8.6,258,"Specialty Grain","Other (Cider, Mead, etc.)",268,89,"Against the Grain Brewery","Brew Pub/Brewery","Louisville","KY","40202","22,235","11333",38.252854,-85.75137
"401","Sweetwater Crank Tank Rye??d Ale",45,6.2,186,"Specialty Grain","Other (Cider, Mead, etc.)",91,93,"Sweetwater Brewing Company","Microbrewery","Atlanta","GA","30324","1,671","28259",33.818304,-84.35779
"402","Piece Dark n Curvy",NA,5.5,165,"Dunkelweizen","Wheat Beer",94,95,"Piece Brewery & Pizzeria","Brew Pub","Chicago","IL","60647","7,014","11056",41.921126,-87.70085
"403","Perennial Black Walnut Dunkel",NA,6.6,198,"Dunkelweizen","Wheat Beer",128,93,"Perennial Artisan Ales","Microbrewery","Saint Louis","MO","63111","33,751","4037",38.559302,-90.25174
"404","Redhook Blueline Dunkelweizen",NA,6,180,"Dunkelweizen","Wheat Beer",20,84,"Redhook Brewery","Microbrewery","Woodinville","WA","98072","42,721","19509",47.758786,-122.10205
"405","Front Street Dram Tree Scottish Ale",NA,7.2,216,"Scottish Ale","Brown/Amber Ale",47,86,"Front Street Brewery (NC)","Brew Pub","Wilmington","NC","28401","42,321","277",34.235219,-77.94134
"406","Anchor Winter Wheat",NA,7,210,"Dunkelweizen","Wheat Beer",252,92,"Anchor Brewing Company","Microbrewery","San Francisco","CA","94107","34,488","9350",37.766529,-122.39577
"407","Victory Sunset Dunkelweizen",NA,5.1,153,"Dunkelweizen","Wheat Beer",46,94,"Victory Brewing Company (ABV)","Microbrewery","Downingtown","PA","19335","10,571","14117",40.02342,-75.71389
"408","Sierra Nevada / Ayinger Beer Camp Dunkle Weisse",10,5.7,171,"Dunkelweizen","Wheat Beer",50,91,"Sierra Nevada Brewing Company","Commercial Brewery","Chico","CA","95928","7,067","17127",39.720955,-121.81888
"409","Bear Republic Old Saint Chango",35,7.2,216,"Dunkelweizen","Wheat Beer",25,86,"Bear Republic Brewing Company","Brew Pub/Brewery","Healdsburg","CA","95448","16,644","14962",38.614088,-122.87626
"410","Samuel Adams LongShot Dark Night in Brooklyn",NA,5.2,156,"Dunkelweizen","Wheat Beer",52,85,"Boston Beer Company","Commercial Brewery","Boston","MA","02116","4,066","17848",42.349622,-71.07372
"411","Upslope Dunkelweizen",NA,6.7,201,"Dunkelweizen","Wheat Beer",14,84,"Upslope Brewing Company","Microbrewery","Boulder","CO","80304","4,126","18719",40.039784,-105.27938
"412","Goliad Presidio La Bahia Black Hefeweizen",15,5.5,165,"Dunkelweizen","Wheat Beer",21,82,"Goliad Brewing Company","Microbrewery","Goliad","TX","77963","14,932","21693",28.685027,-97.40221
"413","Das Bierhaus Hefeweizen Dunkel",NA,5.2,156,"Dunkelweizen","Wheat Beer",12,81,"Das Bierhaus","Brew Pub","Menomonie","WI","54751","24,127","20775",44.86877,-91.92915
"414","Desert Eagle Dunkle Weizen",NA,6.6,198,"Dunkelweizen","Wheat Beer",10,80,"Desert Eagle Brewing Company","Microbrewery","Mesa","AZ","85201","24,244","20947",33.432177,-111.84701
"415","Bad Weather Storm Cellar Series #01 - SCHOKO-WEIZEN",NA,7,210,"Dunkelweizen","Wheat Beer",15,85,"Bad Weather Brewing Company","Microbrewery","Saint Paul","MN","55102","33,838","25740",44.935315,-93.12049
"416","Port Brewing Panzer Imperial Pils",NA,9.5,285,"Imperial Pils/Strong Pale Lager","Pils/Lager",332,93,"Port Brewing Company / The Lost Abbey","Microbrewery","San Marcos","CA","92069","34,651","17796",33.144908,-117.17128
"417","Town Hall Midsummer Nights Dunkel",NA,5.5,165,"Dunkelweizen","Wheat Beer",11,87,"Minneapolis Town Hall Brewery","Brew Pub","Minneapolis","MN","55454","24,952","23182",44.969465,-93.24327
"418","Schlafly No. 15 (Number 15)",NA,6,180,"Dunkelweizen","Wheat Beer",198,75,"Saint Louis Brewery","Brew Pub/Brewery","Saint Louis","MO","63103","33,720","4037",38.631451,-90.21415
"419","Rapp Bastard",NA,5.2,156,"Dunkelweizen","Wheat Beer",21,79,"Rapp Brewing Company","Microbrewery","Largo","FL","33777","20,692","1444",27.851052,-82.76111
"420","Peekskill Hop Common",NA,5.2,156,"California Common","Pils/Lager",42,80,"Peekskill Brewery","Brew Pub","Peekskill","NY","10566","29,567","25314",41.288258,-73.91928
"421","Stoudts PA Dutch Dunkle",NA,NA,NA,"Dunkelweizen","Wheat Beer",15,72,"Stoudts Brewing Co.","Microbrewery","Adamstown","PA","19501","116","8055",40.241588,-76.05765
"422","Portsmouth Dunkelweizen",NA,NA,NA,"Dunkelweizen","Wheat Beer",16,80,"Portsmouth Brewery","Brew Pub","Portsmouth","NH","03801","31,070","10800",43.070188,-70.77684
"423","R.J. Rockers Dunkulele",21,6.2,186,"Dunkelweizen","Wheat Beer",10,69,"R.J. Rockers Brewing Co.","Microbrewery","Spartanburg","SC","29306","36,621","11644",34.925353,-81.9308
"424","Spiteful Debbie Downer Dunkelweizen",NA,7,210,"Dunkelweizen","Wheat Beer",15,69,"Spiteful Brewing","Microbrewery","Chicago","IL","60613","6,983","11056",41.953256,-87.6629
"425","Stone / Maine Dayslayer",NA,7.5,225,"Imperial Pils/Strong Pale Lager","Pils/Lager",89,96,"Stone Brewing","Commercial Brewery","Escondido","CA","92029","12,182","17514",33.087868,-117.11558
"426","Rogue Morimoto Imperial Pilsner",74,8.8,264,"Imperial Pils/Strong Pale Lager","Pils/Lager",736,95,"Rogue Ales","Microbrewery","Newport","OR","97365","26,944","13985",44.649252,-124.05039
"427","Silver Creek Imperial Mai-Bock",NA,11,330,"Imperial Pils/Strong Pale Lager","Pils/Lager",26,92,"Silver Creek Brewery","Brew Pub","Cedarburg","WI","53012","6,262","412",43.305412,-87.99794
"428","Lagunitas ScareCity #1: Imperial Pilsner",NA,8.3,249,"Imperial Pils/Strong Pale Lager","Pils/Lager",153,92,"Lagunitas Brewing Company (Heineken)","Microbrewery","Petaluma","CA","94954","29,864","16835",38.243299,-122.6069
"429","Full Sail Capsize Imperial Pilsner",NA,7,210,"Imperial Pils/Strong Pale Lager","Pils/Lager",77,89,"Full Sail Brewing Company","Microbrewery","Hood River","OR","97031","17,446","13536",45.673147,-121.5368
"430","Black Forest Imperial Pilsner",NA,8.3,249,"Imperial Pils/Strong Pale Lager","Pils/Lager",19,93,"Black Forest Brew Haus","Brew Pub","Farmingdale","NY","11735","12,696","25957",40.725968,-73.44151
"431","Upright The Clash Beer",NA,6.77,203,"Imperial Pils/Strong Pale Lager","Pils/Lager",47,92,"Upright Brewing","Microbrewery","Portland","OR","97227","30,957","10960",45.543831,-122.67497
"432","Gordon Biersch Braumeister Selekt  Imperial Pilsner Brau (IPB)",50,6.5,195,"Imperial Pils/Strong Pale Lager","Pils/Lager",50,90,"Gordon Biersch Brewing Company","Brew Pub/Brewery","San Jose","CA","95112","34,524","22819",37.348541,-121.88627
"433","Surly Simpson??s Scottish",NA,5.4,162,"Scottish Ale","Brown/Amber Ale",42,71,"Surly Brewing Company","Microbrewery","Minneapolis","MN","55414","24,923","23182",44.980379,-93.23003
"434","Firestone Walker Rye Double DBA",NA,15,450,"Barley Wine","Other (Cider, Mead, etc.)",28,100,"Firestone Walker Brewing (Duvel-Moortgat)","Commercial Brewery","Paso Robles","CA","93446","29,400","8515",35.640589,-120.70418
"435","Sweetwater Dank Tank Magnum IP",100,9,270,"Imperial Pils/Strong Pale Lager","Pils/Lager",72,92,"Sweetwater Brewing Company","Microbrewery","Atlanta","GA","30324","1,671","28259",33.818304,-84.35779
"436","Evil Twin Kiwi Imperial Pils",NA,7.5,225,"Imperial Pils/Strong Pale Lager","Pils/Lager",101,85,"Evil Twin Brewing","Client Brewer","Brooklyn","NY","11249","4,794","4881",40.670874,-73.89424
"437","Three Floyds Evil Power Pils",56,7.2,216,"Imperial Pils/Strong Pale Lager","Pils/Lager",145,85,"Three Floyds Brewing Company","Microbrewery","Munster","IN","46321","26,021","15101",41.551457,-87.50143
"438","Alpine Beer Company Emerson Lager",NA,6,180,"Imperial Pils/Strong Pale Lager","Pils/Lager",36,84,"Alpine Beer Company (CA)","Microbrewery","Alpine","CA","91901","688","2202",32.823102,-116.73864
"439","Modist First Call",20,6.5,195,"Imperial Pils/Strong Pale Lager","Pils/Lager",10,81,"Modist Brewing Company","Microbrewery","Minneapolis","MN","55401","24,913","23182",44.984615,-93.27137
"440","Rock Bottom Yorktown Lord Tufnels Imperial Pilz",NA,8.6,258,"Imperial Pils/Strong Pale Lager","Pils/Lager",14,90,"Rock Bottom Yorktown","Brew Pub","Lombard","IL","60148","21,878","16298",41.875429,-88.01723
"441","Hair of the Dog Beer Week - Brandy",NA,11,330,"Imperial Pils/Strong Pale Lager","Pils/Lager",10,85,"Hair of the Dog Brewing Company","Brew Pub/Brewery","Portland","OR","97214","30,980","10960",45.51379,-122.6458
"442","Cisco XVII Anniversary",NA,7,210,"Imperial Pils/Strong Pale Lager","Pils/Lager",18,88,"Cisco Brewers & Nantucket Vineyard","Microbrewery","Nantucket","MA","02584","26,142","20551",41.277794,-70.046019
"443","Terrapin All-American Imperial Pilsner",NA,8.9,267,"Imperial Pils/Strong Pale Lager","Pils/Lager",326,85,"Terrapin Beer Company","Microbrewery","Athens","GA","30607","1,613","10240",34.013154,-83.43565
"444","Urban Chestnut SLIPILS",50,7.5,225,"Imperial Pils/Strong Pale Lager","Pils/Lager",20,80,"Urban Chestnut Brewing Company","Brew Pub/Brewery","Saint Louis","MO","63103","33,720","4037",38.631451,-90.21415
"445","Boulevard Noble Prize Imperial Pilsner",32,7.5,225,"Imperial Pils/Strong Pale Lager","Pils/Lager",30,78,"Boulevard Brewing Company (Duvel-Moortgat)","Commercial Brewery","Kansas City","MO","64108","19,278","21489",39.084554,-94.58296
"446","DuClaw Snake Oil",NA,6.5,195,"Imperial Pils/Strong Pale Lager","Pils/Lager",31,87,"DuClaw Brewing Company","Brew Pub/Brewery","Rosedale","MD","21237","33,063","3771",39.33224,-76.50365
"447","Rahr & Sons Pecker Wrecker",NA,7,210,"Imperial Pils/Strong Pale Lager","Pils/Lager",66,81,"Rahr & Sons Brewing","Microbrewery","Fort Worth","TX","76104","13,530","22073",32.730265,-97.32002
"448","Pelican Cold Coast",50,7,210,"Imperial Pils/Strong Pale Lager","Pils/Lager",12,74,"Pelican Pub & Brewery","Brew Pub/Brewery","Pacific City","OR","97135","28,986","29444",45.201302,-123.95999
"449","Clown Shoes Third Party Candidate",NA,7,210,"Imperial Pils/Strong Pale Lager","Pils/Lager",40,73,"Clown Shoes Beer","Client Brewer","Ipswich","MA","01938","18,424","6025",42.682965,-70.84007
"450","Karl Strauss Whistler Imperial Pilsner",65,7.5,225,"Imperial Pils/Strong Pale Lager","Pils/Lager",52,83,"Karl Strauss Brewing Company","Microbrewery","San Diego","CA","92109","34,372","6960",32.791246,-117.24343
"451","Momokawa G Joy Junmai Ginjo Genshu Sake",NA,18,540,"Sak?? - Genshu","Sake",52,88,"SakeOne Corporation","Sake Producer","Forest Grove","OR","97116","13,200","23926",45.541009,-123.13043
"452","moto-i Junmai Nigori Namasake",NA,14.5,435,"Sak?? - Nigori","Sake",14,83,"moto-i","Sake Producer","Minneapolis","MN","55408","24,906","23182",44.947515,-93.28742
"453","Momokawa Organic Nigori Sake",NA,16,480,"Sak?? - Nigori","Sake",15,74,"SakeOne Corporation","Sake Producer","Forest Grove","OR","97116","13,200","23926",45.541009,-123.13043
"454","Smuttynose Big Beer Series: East Coast Common",82,7.4,222,"California Common","Pils/Lager",34,95,"Smuttynose Brewing Company","Microbrewery","Hampton","NH","03842","16,054","22698",42.93569,-70.82514
"455","New Glory 1849 Ale",32,5,150,"California Common","Pils/Lager",11,87,"New Glory Craft Brewery","Microbrewery","Sacramento","CA","95826","33,441","22470",38.550098,-121.37492
"456","Anchor Brotherhood Steam Beer",NA,5.6,168,"California Common","Pils/Lager",167,81,"Anchor Brewing Company","Microbrewery","San Francisco","CA","94107","34,488","9350",37.766529,-122.39577
"457","Anchor Dry-Hopped Steam Beer",NA,5.4,162,"California Common","Pils/Lager",162,79,"Anchor Brewing Company","Microbrewery","San Francisco","CA","94107","34,488","9350",37.766529,-122.39577
"458","Schlafly Pi Common",NA,5,150,"California Common","Pils/Lager",34,77,"Saint Louis Brewery","Brew Pub/Brewery","Saint Louis","MO","63103","33,720","4037",38.631451,-90.21415
"459","Red Hare National Common",NA,5.5,165,"California Common","Pils/Lager",15,71,"Red Hare Brewing Company","Microbrewery","Marietta","GA","30067","23,209","8843",33.933002,-84.47633
"460","Linden Street Urban Peoples Common Lager",NA,4.5,135,"California Common","Pils/Lager",16,70,"Oakland United Beerworks","Microbrewery","Oakland","CA","94601","27,952","9012",37.776835,-122.21792
"461","Sweetwater Tavern Last Chance Lager",NA,NA,NA,"California Common","Pils/Lager",11,69,"Sweetwater Tavern (Great American Restaurants)","Brew Pub","Falls Church","VA","22042","12,626","13294",38.864669,-77.18781
"462","Cinder Block Northtown Native",20,5,150,"California Common","Pils/Lager",16,68,"Cinder Block Brewing","Microbrewery","Kansas City","MO","64116","19,284","21489",39.14912,-94.57314
"463","Anchor Steam Beer",NA,4.9,147,"California Common","Pils/Lager",3781,66,"Anchor Brewing Company","Microbrewery","San Francisco","CA","94107","34,488","9350",37.766529,-122.39577
"464","Fullsteam Lager",30,5.5,165,"California Common","Pils/Lager",36,67,"Fullsteam Brewery","Microbrewery","Durham","NC","27701","10,877","9675",35.997193,-78.89731
"465","New Albanian Mt. Lee California Common",65,6.4,192,"California Common","Pils/Lager",33,77,"New Albanian Brewing Company","Microbrewery","New Albany","IN","47150","26,443","27653",38.30382,-85.82522
"466","Cigar City Enthalpy of Vaporization",NA,5.4,162,"California Common","Pils/Lager",13,63,"Cigar City Brewing","Microbrewery","Tampa","FL","33607","38,089","24636",27.963798,-82.49537
"467","Fat Point Big Boca Ale",38,5.1,153,"California Common","Pils/Lager",10,64,"Fat Point Brewing","Microbrewery","Punta Gorda","FL","33950","31,446","9116",26.914393,-82.04106
"468","Berryessa Common Sense",20,4.8,144,"California Common","Pils/Lager",16,61,"Berryessa Brewing Company","Microbrewery","Winters","CA","95694","42,578","9821",38.537434,-121.97757
"469","Lake Louie Hop-A-Louie Series #  1: Mosquito Beach",30,5.8,174,"California Common","Pils/Lager",28,60,"Lake Louie Brewing","Microbrewery","Arena","WI","53503","1,273","25073",43.150122,-89.92545
"470","Bhramari Carolina Common",17,5.8,174,"California Common","Pils/Lager",11,60,"Bhramari Brewing Co.","Brew Pub","Asheville","NC","28801","1,502","13139",35.595661,-82.55632
"471","Key Chesapeake Common",37,4.8,144,"California Common","Pils/Lager",12,56,"Key Brewing Company","Microbrewery","Dundalk","MD","21222","10,776","14237",39.263162,-76.5082
"472","Mudshark Spring Training Steam",NA,5.2,156,"California Common","Pils/Lager",10,56,"Mudshark Brewing Company","Microbrewery","Lake Havasu City","AZ","86403","20,289","6182",34.483582,-114.33694
"473","Hill Farmstead Society & Solitude #6",NA,8,240,"Imperial IPA","IPA",106,100,"Hill Farmstead Brewery","Microbrewery","Greensboro Bend","VT","05842","15,509","16829",44.574196,-72.24333
"474","Evil Twin Imperial Doughnut Break - Raspberry",NA,11.5,345,"Imperial Porter","Porter",41,99,"Evil Twin Brewing","Client Brewer","Brooklyn","NY","11249","4,794","4881",40.62327,-74.0295
"475","Base Camp Gold Rush India Oat Common",59,7.4,222,"California Common","Pils/Lager",12,69,"Base Camp Brewing Company","Microbrewery","Portland","OR","97214","30,980","10960",45.51379,-122.6458
"476","Titletown Steam Engine Common",NA,5.3,159,"California Common","Pils/Lager",10,72,"Titletown Brewing Company","Brew Pub","Green Bay","WI","54303","15,393","19302",44.530892,-88.04482
"477","Three Floyds Kalifornia Uncommon",NA,5,150,"California Common","Pils/Lager",23,71,"Three Floyds Brewing Company","Microbrewery","Munster","IN","46321","26,021","15101",41.551457,-87.50143
"478","Pizza Boy Uncommonly Common",NA,4.9,147,"California Common","Pils/Lager",10,54,"Pizza Boy Brewing","Brew Pub","Enola","PA","17025","12,079","16146",40.28807,-76.94251
"479","Cismontane Chardonnay Barrel Aged The Citizen",45,6,180,"California Common","Pils/Lager",12,71,"Cismontane Brewing","Brew Pub/Brewery","Rancho Santa Margarita","CA","92688","31,721","18899",33.639994,-117.60351
"480","Toppling Goliath Dorothy??s New World Lager",11,5.5,165,"California Common","Pils/Lager",283,51,"Toppling Goliath","Microbrewery","Decorah","IA","52101","9,749","18793",43.345879,-91.77187
"481","Bauhaus Brew Labs Wagon Party West C??ast Lager",55,5.4,162,"California Common","Pils/Lager",34,52,"Bauhaus Brew Labs","Microbrewery","Minneapolis","MN","55413","24,922","23182",44.997665,-93.24927
"482","Hill Farmstead E.",NA,6.2,186,"Belgian Ale","Saison",238,99,"Hill Farmstead Brewery","Microbrewery","Greensboro Bend","VT","05842","15,509","16829",44.574196,-72.24333
"483","Sante Adairius Cuspid to Cuspid",NA,7.5,225,"Belgian Ale","Saison",13,99,"Sante Adairius Rustic Ales","Microbrewery","Capitola","CA","95010","5,825","13512",36.9761,-121.95316
"484","Crooked Stave Beer Table Table Beer",NA,3.6,108,"Belgian Ale","Saison",62,99,"Crooked Stave","Microbrewery","Denver","CO","80216","10,036","8398",39.784622,-104.96214
"485","Jolly Pumpkin Luciernaga  (The Firefly)",NA,6.5,195,"Belgian Ale","Saison",940,98,"Jolly Pumpkin Artisan Ales","Microbrewery","Dexter","MI","48130","10,276","25362",42.344837,-83.89907
"486","Ommegang Game of Thrones #6 - Seven Kingdoms",NA,6.9,207,"Belgian Ale","Saison",204,97,"Brewery Ommegang  (Duvel-Moortgat)","Microbrewery","Cooperstown","NY","13326","8,451","16805",42.703091,-74.91413
"487","Jolly Pumpkin Fuego del Otono (Autumn Fire)",NA,6.1,183,"Belgian Ale","Saison",654,97,"Jolly Pumpkin Artisan Ales","Microbrewery","Dexter","MI","48130","10,276","25362",42.344837,-83.89907
"488","Allagash Sixteen Counties Ale (2016 - )",NA,7.3,219,"Belgian Ale","Saison",93,97,"Allagash Brewing Company","Microbrewery","Portland","ME","04103","30,945","11808",43.685882,-70.2903
"489","Pizza Port Junkle N Da Trunkle Dunkle",NA,5.2,156,"Dunkel/Tmav??","Brown/Amber Ale",42,83,"Pizza Port (Carlsbad)","Brew Pub","Carlsbad","CA","92008","5,901","2614",33.158137,-117.32646
"490","Stillwater Beer Table Table Beer",NA,4.7,141,"Belgian Ale","Saison",201,97,"Stillwater Artisanal","Client Brewer","Baltimore","MD","21224","2,278","7362",39.284607,-76.55696
"491","Allagash Confluence Ale",NA,7.4,222,"Belgian Ale","Saison",449,97,"Allagash Brewing Company","Microbrewery","Portland","ME","04103","30,945","11808",43.685882,-70.2903
"492","Lost Abbey Saints Devotion",NA,6.8,204,"Belgian Ale","Saison",428,97,"Port Brewing Company / The Lost Abbey","Microbrewery","San Marcos","CA","92069","34,651","17796",33.144908,-117.17128
"493","Midnight Sun 2007 Deadly Sins: Pride",40,6.5,195,"Belgian Ale","Saison",100,96,"Midnight Sun Brewing Company","Microbrewery","Anchorage","AK","99507","973","29536",61.154834,-149.82865
"494","Stillwater Tenacity (/t????nas??d??/)",NA,6,180,"Belgian Ale","Saison",64,96,"Stillwater Artisanal","Client Brewer","Baltimore","MD","21224","2,278","7362",39.284607,-76.55696
"495","Holy Mountain The Third (3rd) Nail",NA,6,180,"Belgian Ale","Saison",15,96,"Holy Mountain Brewing Company","Brew Pub/Brewery","Seattle","WA","98119","35,214","13678",47.57487,-122.39392
"496","Evil Twin Femme Fatale Brett",NA,6,180,"Belgian Ale","Saison",362,96,"Evil Twin Brewing","Client Brewer","Brooklyn","NY","11249","4,794","4881",40.627946,-73.94552
"497","Green Flash Rayon Vert",32,7,210,"Belgian Ale","Saison",820,96,"Green Flash Brewing Company","Microbrewery","San Diego","CA","92121","34,303","6960",32.899996,-117.20722
"498","Perennial Hommel Bier",NA,5.9,177,"Belgian Ale","Saison",189,96,"Perennial Artisan Ales","Microbrewery","Saint Louis","MO","63111","33,751","4037",38.559302,-90.25174
"499","Ommegang Belgian-style Pale Ale (BPA)",NA,6.2,186,"Belgian Ale","Saison",614,95,"Brewery Ommegang  (Duvel-Moortgat)","Microbrewery","Cooperstown","NY","13326","8,451","16805",42.703091,-74.91413
"500","Russian River Redemption (Batch 002+)",NA,5.15,155,"Belgian Ale","Saison",683,95,"Russian River Brewing","Brew Pub/Brewery","Santa Rosa","CA","95404","34,794","22924",38.457611,-122.69317
"501","Ommegang Fleur De Houblon",NA,6.8,204,"Belgian Ale","Saison",411,95,"Brewery Ommegang  (Duvel-Moortgat)","Microbrewery","Cooperstown","NY","13326","8,451","16805",42.703091,-74.91413
"502","Iron Hill Munich Dunkel",NA,5,150,"Dunkel/Tmav??","Brown/Amber Ale",33,87,"Iron Hill Newark","Brew Pub","Newark","DE","19711","26,462","29575",39.700561,-75.7431
"503","Stillwater Babylonian Style Ale (Omnipollo Nebuchadnezzar Remix)",NA,6,180,"Belgian Ale","Saison",93,95,"Stillwater Artisanal","Client Brewer","Baltimore","MD","21224","2,278","7362",39.284607,-76.55696
"504","Allagash House Beer",NA,4.5,135,"Belgian Ale","Saison",93,95,"Allagash Brewing Company","Microbrewery","Portland","ME","04103","30,945","11808",43.685882,-70.2903
"505","New Glarus R & D Golden Ale (2015)",38,6,180,"Belgian Ale","Saison",36,95,"New Glarus Brewing Company","Microbrewery","New Glarus","WI","53574","26,685","20574",42.81636,-89.64075
"506","Three Floyds Dark Lord Russian Imperial Stout - Bourbon Barrel Aged",NA,15,450,"Imperial Stout","Stout",413,100,"Three Floyds Brewing Company","Microbrewery","Munster","IN","46321","26,021","15101",41.551457,-87.50143
"507","Allagash Hoppy Table Beer",NA,4.9,147,"Belgian Ale","Saison",82,95,"Allagash Brewing Company","Microbrewery","Portland","ME","04103","30,945","11808",43.685882,-70.2903
"508","pFriem Brett Brux Pale Ale",NA,6.9,207,"Belgian Ale","Saison",14,95,"pFriem Family Brewers","Microbrewery","Hood River","OR","97031","17,446","13536",45.673147,-121.5368
"509","Sierra Nevada Ovila Brown - Mandarin Orange & Cocoa",NA,7,210,"Belgian Ale","Saison",53,95,"Sierra Nevada Brewing Company","Commercial Brewery","Chico","CA","95928","7,067","17127",39.720955,-121.81888
"510","Cigar City Jean Ribault French Pale Ale",NA,6,180,"Belgian Ale","Saison",26,95,"Cigar City Brewing","Microbrewery","Tampa","FL","33607","38,089","24636",27.963798,-82.49537
"511","Leelanau Petoskey Pale Ale",NA,5.5,165,"Belgian Ale","Saison",151,95,"Leelanau Brewing Company","Client Brewer","Lake Leelanau","MI","49653","20,324","5233",44.975051,-85.72325
"512","Wicked Weed Barrel Aged Lunatic",NA,7,210,"Belgian Ale","Saison",17,94,"Wicked Weed Brewing (AB-InBev)","Brew Pub","Asheville","NC","28801","1,502","13139",35.595661,-82.55632
"513","Toppling Goliath Mornin?? Delight",50,12,360,"Imperial Stout","Stout",193,100,"Toppling Goliath","Microbrewery","Decorah","IA","52101","9,749","18793",43.345879,-91.77187
"514","Toppling Goliath Kentucky Brunch",NA,12,360,"Imperial Stout","Stout",122,100,"Toppling Goliath","Microbrewery","Decorah","IA","52101","9,749","18793",43.345879,-91.77187
"515","Cigar City Hunahpu??s Imperial Stout - Double Barrel Aged",NA,11,330,"Imperial Stout","Stout",296,100,"Cigar City Brewing","Microbrewery","Tampa","FL","33607","38,089","24636",27.963798,-82.49537
"516","AleSmith Speedway Stout - Bourbon Barrel Aged",NA,12,360,"Imperial Stout","Stout",857,100,"AleSmith Brewing Company","Microbrewery","San Diego","CA","92126","34,375","6960",32.914346,-117.14116
"517","Three Floyds Dark Lord Russian Imperial Stout - Bourbon Vanilla Bean",NA,14,420,"Imperial Stout","Stout",427,100,"Three Floyds Brewing Company","Microbrewery","Munster","IN","46321","26,021","15101",41.551457,-87.50143
"518","Cigar City Final Push Imperial Stout",NA,11,330,"Imperial Stout","Stout",152,100,"Cigar City Brewing","Microbrewery","Tampa","FL","33607","38,089","24636",27.963798,-82.49537
"519","AleSmith Speedway Stout",70,12,360,"Imperial Stout","Stout",2939,100,"AleSmith Brewing Company","Microbrewery","San Diego","CA","92126","34,375","6960",32.914346,-117.14116
"520","AleSmith Speedway Stout - Bourbon Barrel Aged: Vietnamese Coffee",NA,12,360,"Imperial Stout","Stout",160,100,"AleSmith Brewing Company","Microbrewery","San Diego","CA","92126","34,375","6960",32.914346,-117.14116
"521","Cycle / 3 Sons Rare Scooop",NA,NA,NA,"Imperial Stout","Stout",24,100,"Cycle Brewing","Microbrewery","Saint Petersburg","FL","33701","33,903","14425",27.770955,-82.63931
"522","Cigar City Hunahpu??s Imperial Stout",NA,11,330,"Imperial Stout","Stout",989,100,"Cigar City Brewing","Microbrewery","Tampa","FL","33607","38,089","24636",27.963798,-82.49537
"523","Three Floyds Dark Lord Russian Imperial Stout",NA,15,450,"Imperial Stout","Stout",1842,100,"Three Floyds Brewing Company","Microbrewery","Munster","IN","46321","26,021","15101",41.551457,-87.50143
